id,station_name,city,country,company,lat,lon,free_bikes
c8a5761ea95e927808b2f37fd65a00f6,ст. м. Кропоткинская (выход к Гоголевскому бульвару),Moscow,RU,ЗАО «СитиБайк»,55.7449006,37.6020183,0.0
ac022f0470de9722cc62e06ade73b0a6,"ул. Профсоюзная, д.109, Вс.1 (ст. м. Коньково, выход №10)",Moscow,RU,ЗАО «СитиБайк»,55.6337498,37.5205529,0.0
17ffd07cf6b96ecd32b4980353290399,"ул. Новолесная, д.1/49",Moscow,RU,ЗАО «СитиБайк»,55.7812396,37.59239,0.0
2a711f9eb3228be91abce39eca68e118,"ул. Селезнёвская, д.29, стр.1 (ст. м. Достоевская)",Moscow,RU,ЗАО «СитиБайк»,55.7817849,37.6144726,0.0
70df0b4cae5a2057e8e78cccb4189832,"ул. Новосущёвская, д.22, стр.8",Moscow,RU,ЗАО «СитиБайк»,55.7896632,37.6044645,0.0
95a4f57535b7b37812ed7a87792eb310,"ул. Образцова, д.19А",Moscow,RU,ЗАО «СитиБайк»,55.78921,37.609836,0.0
9e25bb92e399fe2965c34299f2e02e8f,Гоголевский б-р (напротив д.33),Moscow,RU,ЗАО «СитиБайк»,55.7509180556,37.6005927778,0.0
7fb1cd43ed27868c696774290d275634,"Газетный пер., д.6",Moscow,RU,ЗАО «СитиБайк»,55.7574181,37.6086772,0.0
7009f6abe6bd1fe3590573db782deb55,"Тверской б-р (напротив д.17, стр.1)",Moscow,RU,ЗАО «СитиБайк»,55.761072,37.601473,0.0
73e51bd2c1897b882cb24e5fb4929658,Тверской б-р (напротив д.28),Moscow,RU,ЗАО «СитиБайк»,55.7646115,37.6052356,0.0
948f764260191356e566db7ae1cf8367,Страстной б-р (напротив д.8А),Moscow,RU,ЗАО «СитиБайк»,55.7667105556,37.6094894444,0.0
c0aaa042aea9d5b4b9676c0370c7b63a,"ул. Мясницкая, д.10",Moscow,RU,ЗАО «СитиБайк»,55.7599141,37.6316201,0.0
d6bdd8ecf20dea87139e14fb5b217216,"Чистопрудный б-р (напротив д.12, стр.1)",Moscow,RU,ЗАО «СитиБайк»,55.760381,37.645665,0.0
3de3b1602789dfdb97a6ec77def0d6d1,"Покровский б-р (напротив д.18, стр.18)",Moscow,RU,ЗАО «СитиБайк»,55.7533283333,37.6473502778,0.0
dfff0ae310a99910ab3b6d1cce74e8df,"Театральный пр., д.5, стр.1 (ст. м. Лубянка)",Moscow,RU,ЗАО «СитиБайк»,55.7598405,37.6257601,0.0
743a7e1868de7d73f8da49652e7626a6,Фрунзенская наб. (напротив д.4),Moscow,RU,ЗАО «СитиБайк»,55.7335583333,37.596925,0.0
2847d4610895d7ec81d91130d06afb4a,Фрунзенская наб. (пересеч. с 1-ой Фрунзенской ул.),Moscow,RU,ЗАО «СитиБайк»,55.7257472222,37.5898638889,0.0
e91168ee1e3709e789e2e66d0cd5c350,Фрунзенская наб. (пересеч. со 2-й Фрунзенской ул.),Moscow,RU,ЗАО «СитиБайк»,55.72175,37.5864,0.0
03d344f8980c91aaaf53adf589d06bd8,Фрунзенская наб. (пересеч. с 3-ей Фрунзенской ул.),Moscow,RU,ЗАО «СитиБайк»,55.7191972222,37.5834861111,0.0
4c04301419b1bf625b879bb5dbbdde73,"Фрунзенская наб., д.54 (пересеч. с ул. Хамовнический Вал)",Moscow,RU,ЗАО «СитиБайк»,55.7155083333,37.5779888889,0.0
dbb0d09b3b123d61b9f5a2dce33b628c,Лужнецкая наб. (пересеч. с Новолужнецким пр.),Moscow,RU,ЗАО «СитиБайк»,55.7125583333,37.5695222222,0.0
890272c43754ed884d6863aa002d98d0,"Зубовский б-р, д.5, стр.1 (ст. м. Парк Культуры)",Moscow,RU,ЗАО «СитиБайк»,55.7351049,37.5937289,0.0
8e64a2289bf01f652692c3a670bfaa5f,Комсомольский пр-т (пересеч. с 1-ой Фрунзенской ул.),Moscow,RU,ЗАО «СитиБайк»,55.727509,37.583821,0.0
085068ce82842e0b168435e186a23e59,Комсомольский пр-т (пересеч. со 2-ой Фрунзенской ул.),Moscow,RU,ЗАО «СитиБайк»,55.724242,37.579058,0.0
4dcdf969c239805c45c9321b5668ae89,Комсомольский пр-т (пересеч. с 3-ей Фрунзенской ул.),Moscow,RU,ЗАО «СитиБайк»,55.721972,37.575858,0.0
0656ac2e4d510ad0a421a436aa56cbf5,ст. м. Спортивная (выход №1),Moscow,RU,ЗАО «СитиБайк»,55.721468,37.561961,0.0
d63eea07ad8a08c2ca219fa4b2ac2f8e,ул. Большая Пироговская (напротив д.6/25),Moscow,RU,ЗАО «СитиБайк»,55.736464,37.581356,0.0
0e683718c001db1f1ef99dc0ad2964b2,"ул. Большая Пироговская (напротив д.15/18, стр.1)",Moscow,RU,ЗАО «СитиБайк»,55.733867,37.575489,0.0
587ac1deb5ab88186ddca914872f783c,"Комсомольский пр-т, д.28 (ст. м. Фрунзенская)",Moscow,RU,ЗАО «СитиБайк»,55.726481,37.580778,0.0
2ecf6584949aea2aa44a3ed5c805820d,"ул. Большая Пироговская, д.2, стр.4",Moscow,RU,ЗАО «СитиБайк»,55.731139,37.569297,0.0
2eaa5bfa858c3c45066f7d58691fa93e,ул. Большая Пироговская (на площади Новодевичьего Монастыря),Moscow,RU,ЗАО «СитиБайк»,55.726908,37.559608,0.0
75598a11b3ecb5756d53e384b00ae6ea,"Комсомольский пр-т, д.48/22 (дублёр, пересеч. с ул. Хамовнический Вал)",Moscow,RU,ЗАО «СитиБайк»,55.719322,37.570481,0.0
3deacfbea30367b071c7b8cc1d117440,"ул. Садовая-Самотечная, д.8",Moscow,RU,ЗАО «СитиБайк»,55.773194,37.614186,0.0
64fc0a997a922c958e2d5c7c2df1dc90,"Большая Сухаревская пл., д.2 (ст. м. Сухаревская)",Moscow,RU,ЗАО «СитиБайк»,55.772192,37.632814,0.0
8d6054bacb3442e1d982d9353b62bc25,"ул. Сущёвский Вал, д.2",Moscow,RU,ЗАО «СитиБайк»,55.7914268,37.5905396,0.0
280696acfb802d92a6f792ecaf730b63,"ул. Шереметьевская, д.27",Moscow,RU,ЗАО «СитиБайк»,55.8032637,37.6155506,0.0
106b7d716e11492c687b693359fe024e,"Олимпийский пр-т, д.22",Moscow,RU,ЗАО «СитиБайк»,55.7861479,37.6225279,0.0
3950fa260a55b54d5629ccb5ad67ec55,"ул. Щепкина, д.61/2, стр.22",Moscow,RU,ЗАО «СитиБайк»,55.7886534,37.6290169,0.0
d05942be6bdb55dc219766d84599bc8e,"пр-т Мира, д.40 (рядом со ст. м. Проспект Мира (кольцевая))",Moscow,RU,ЗАО «СитиБайк»,55.7804054,37.6334722,0.0
5d135d6c5ef96e37ce720264ff344277,"пр-т Мира, д.69, стр.1",Moscow,RU,ЗАО «СитиБайк»,55.7865412,37.6347031,0.0
6c54e611f9dc5d467ab86c61825c66c7,"ул. Сельскохозяйственная, д.17, к.1",Moscow,RU,ЗАО «СитиБайк»,55.837238,37.6365455,0.0
c50eae0d7d8c65db6d7eb62b8b4299cb,"ул. Правды, д.4/19",Moscow,RU,ЗАО «СитиБайк»,55.7835199,37.5765806,0.0
708a180670f7ae1966a850f82b884ca3,"Орликов пер., д.3, стр.7 (со стороны пр-та Академика Сахарова)",Moscow,RU,ЗАО «СитиБайк»,55.7720802,37.6465038,0.0
4b6adfc5ff57c91fe55772137e8d42c2,"Рязанский пр., Комсомольская пл., д.2",Moscow,RU,ЗАО «СитиБайк»,55.7723539,37.6548139,0.0
125c0a0d4e07150a86f466eb3e67704d,"Комсомольская пл., д.5",Moscow,RU,ЗАО «СитиБайк»,55.7766712,37.6591375,0.0
8b253d3148fab6fb5f3b91e37894e87a,"Олимпийский пр-т, д.14",Moscow,RU,ЗАО «СитиБайк»,55.7791071,37.6225146,0.0
6f66fb6291514eceae68c0be554130ca,"Ленинский пр-т, д.33",Moscow,RU,ЗАО «СитиБайк»,55.712075,37.587744,0.0
23b96bd83db0eed8344fbaabbad8be28,"ул. Дмитрия Ульянова, д.22, к.1 (ст. м. Академическая)",Moscow,RU,ЗАО «СитиБайк»,55.6880358,37.572725,0.0
1e3d300d8664eafc756d9f04aca953be,"пр-т Мира, д.11",Moscow,RU,ЗАО «СитиБайк»,55.7761657,37.6320952,0.0
d2bdf894e935e218e45f777ce02c07f8,"Пресненская наб., д.6, стр.2 (Москва-Сити, башня Империя)",Moscow,RU,ЗАО «СитиБайк»,55.7481479,37.5393069,0.0
258f03293d871b1412a25fafc6232fa5,"Нахимовский пр-т, д.11 (ст. м. Нахимовский пр-т, выход №4)",Moscow,RU,ЗАО «СитиБайк»,55.6636625,37.6066403,0.0
cdcc9a5a41aa9faf38f158b38c89207c,"ул. Дмитрия Ульянова, д.46",Moscow,RU,ЗАО «СитиБайк»,55.6794909,37.5953863,0.0
b5ac7c9d8a688cb6c4c1917d92728a9f,ул. Новаторов (пересечение с ул. Воронцовские Пруды),Moscow,RU,ЗАО «СитиБайк»,55.6667781,37.5268164,0.0
55ba4973f043444f1504443fa36c8988,"ул. Академика Пилюгина, д.18",Moscow,RU,ЗАО «СитиБайк»,55.668303,37.5341468,0.0
10e0604a4da53a83e8790f77673a0f59,"Балаклавский пр-т, д.16 (ст. м. Чертановская, выход №3)",Moscow,RU,ЗАО «СитиБайк»,55.6416745,37.604728,0.0
215f6e5abcaf05be2b47397f2e4f6d95,"ул. Вавилова, д.24",Moscow,RU,ЗАО «СитиБайк»,55.7012679,37.5775101,0.0
3aa30024eb5cae4356f038ef5b55ccba,"ул. 10-летия Октября (напротив д.29, к.3, ст. м. Спортивная, выход №2)",Moscow,RU,ЗАО «СитиБайк»,55.723833,37.565242,0.0
6ac4ab99a726e28e6029bf295eb33e32,"ул. Пушечная, д.11",Moscow,RU,ЗАО «СитиБайк»,55.7606867,37.6248436,0.0
3e7375d65c9a6b9bfc8370e01fb537b6,"пр-т Вернадского, ост. Университетский пр-т",Moscow,RU,ЗАО «СитиБайк»,55.700717,37.545765,0.0
bacdd8996f6463e7d11f02b2eedb9425,"ул. Косыгина, д.2, стр.19",Moscow,RU,ЗАО «СитиБайк»,55.708218,37.576594,0.0
497cd1254f4c24d584a766e82a813efc,"ул. Косыгина, д.8, стр.2",Moscow,RU,ЗАО «СитиБайк»,55.706876,37.564743,0.0
3fe8db5c88c237ea7bea477f53d025ac,"ул. Вавилова, д.55/7",Moscow,RU,ЗАО «СитиБайк»,55.691614,37.562443,0.0
e421c7b9473c35f5e9251dc375bfdd13,"Нахимовский пр-т, д.46 (ст. м. Профсоюзная, выход №3)",Moscow,RU,ЗАО «СитиБайк»,55.678516,37.561994,0.0
d5ad964e6d362a7ffb8b03c60c45d788,"Москворецкая наб. (Китайгородский пр., д.9, стр.2)",Moscow,RU,ЗАО «СитиБайк»,55.749635,37.632794,0.0
2d711a7b3018cef0c1d6a8c83d96ffaf,"ул. Маросейка, д.9",Moscow,RU,ЗАО «СитиБайк»,55.7576991,37.634929,0.0
644f76e4700d8f1b98f518cdefa6a5ef,"ул. Пятницкая, д.37",Moscow,RU,ЗАО «СитиБайк»,55.73876,37.62838,0.0
b87f087356889121de4489f42752ed53,"ул. Краснопролетарская (напротив д.2/4, стр.3)",Moscow,RU,ЗАО «СитиБайк»,55.7735332,37.6086074,0.0
b9425fcb0efd0f1fb80f53e7bf66a20f,"ул. Большая Полянка, д.33/41, стр.1",Moscow,RU,ЗАО «СитиБайк»,55.7362414,37.6195157,0.0
3c07d391cee5d4f9029388b6b9dd3ae5,"Кутузовский пр-т, д.7/4, стр.1",Moscow,RU,ЗАО «СитиБайк»,55.7490298,37.5622227,0.0
1825e4e790ca627c2544392f92a88d12,"Нахимовский пр-т, д.24",Moscow,RU,ЗАО «СитиБайк»,55.6712381,37.5838691,0.0
40944fee65180db3903e9ce7f89c4963,"ул. Марии Ульяновой, д.16",Moscow,RU,ЗАО «СитиБайк»,55.6836121,37.5201069,0.0
247156f36c6ad81008835de83ea54aa9,"ул. Гарибальди, д.1А",Moscow,RU,ЗАО «СитиБайк»,55.6787267,37.5326129,0.0
ee84b4b089eb5d95aa5f66b182292032,"Симферопольский б-р, д.4",Moscow,RU,ЗАО «СитиБайк»,55.6592363,37.6080312,0.0
aca13d8d78d2dfcd06b12a0e2d5ff0f2,"ул. Воронцовские Пруды, д.3",Moscow,RU,ЗАО «СитиБайк»,55.6649089,37.5389143,0.0
4a79f86574cc8fd758b48eaee84e368e,"ул. Новочерёмушкинская, д.71/32",Moscow,RU,ЗАО «СитиБайк»,55.6608021,37.5595989,0.0
57f79374fce72d2d86e14589dbc0c692,"ул. Тверская, д.8",Moscow,RU,ЗАО «СитиБайк»,55.762079,37.60962,0.0
433583913e820cc47fcd0e93a0250c84,"Ломоносовский пр-т (дублёр), д.27",Moscow,RU,ЗАО «СитиБайк»,55.699342,37.523769,0.0
0e72aab856b6c0eb170fdf25394ae718,"Большой Патриарший пер., д.7",Moscow,RU,ЗАО «СитиБайк»,55.763584,37.59311,0.0
fb2924c3c127328b5dc40e9cb1a81e58,"ул. Обручева, д.33А",Moscow,RU,ЗАО «СитиБайк»,55.6512748,37.5529893,0.0
ccbcae8cc2c6501b2ea67da2c195afc1,"ул. Обручева, д.65/54",Moscow,RU,ЗАО «СитиБайк»,55.6502405,37.5639941,0.0
fb35f52d324a2e37f0bcbf9bd0bbe8bc,"Балаклавский пр-т, д.34, к.1",Moscow,RU,ЗАО «СитиБайк»,55.6450878,37.5820766,0.0
2ade460057075b8ed1dfa19033317488,"ул. Академика Волгина, д.21",Moscow,RU,ЗАО «СитиБайк»,55.6477514,37.5137244,0.0
1b254e1db8db1bc11ef0b4d12c4f326d,"ул. Островитянова, д.7",Moscow,RU,ЗАО «СитиБайк»,55.6440884,37.4953587,0.0
8bf5620680008b5e7571071a83767488,"ул. Советской Армии, д.2, стр.1",Moscow,RU,ЗАО «СитиБайк»,55.785259,37.6163822,0.0
5d54bc8f6c86c4afa6c8ab377afdce95,"пр-т Мира, д.41, стр.2",Moscow,RU,ЗАО «СитиБайк»,55.7815506,37.6317848,0.0
5804cdaf3942ebc88247e3ae1fdcb153,"пр-т Мира, д.111 (ст. м. ВДНХ, выход к Звёздному бульвару)",Moscow,RU,ЗАО «СитиБайк»,55.8195275,37.6393391,0.0
86e0418b37ca8361daf4b5178bf2a2ac,"ул. Сергея Эйзенштейна, д.1",Moscow,RU,ЗАО «СитиБайк»,55.8277664,37.647529,0.0
733742d27ea638dbf60f6260358618ad,"пр-т Мира, д.163",Moscow,RU,ЗАО «СитиБайк»,55.8339685,37.6541501,0.0
64144ac499badd337161346f2c851b05,"ул. Академика Королёва, д.8А",Moscow,RU,ЗАО «СитиБайк»,55.8217153,37.623526,0.0
0be869e30bfcf874e6263d487029366d,"ул. Яблочкова, д.25",Moscow,RU,ЗАО «СитиБайк»,55.82188,37.5802,0.0
f52e5e1a67201f7940211fa4f827ecea,"ул. Милашенкова, д.12Д",Moscow,RU,ЗАО «СитиБайк»,55.8278585,37.5805768,0.0
20ca0b2f8ef67bc0eefd2b207564e451,"ул. Руставели, д.12/13",Moscow,RU,ЗАО «СитиБайк»,55.8133394,37.5942708,0.0
a4b9ae06c73fc93ba0fdecef0393457f,"ул. Ботаническая, д.4, стр.6",Moscow,RU,ЗАО «СитиБайк»,55.8302838,37.6010653,0.0
412fd98cd638885e634941427a998d21,"1-я Останкинская ул., д.1",Moscow,RU,ЗАО «СитиБайк»,55.8243764,37.617075,0.0
c3520a547dbf69000a44c91ac4af7e02,Продольный пр. (у главного входа ВДНХ),Moscow,RU,ЗАО «СитиБайк»,55.825363,37.6391911,0.0
2f20ba46db27a75b6864365ff1ad29fa,"ул. Академика Королёва, д.15, к.2",Moscow,RU,ЗАО «СитиБайк»,55.8189299,37.6159792,0.0
70a301800a3cc1692f20d3867471a322,"ул. Пятницкая, д.2/38",Moscow,RU,ЗАО «СитиБайк»,55.7456921,37.6265178,0.0
deb361accd2e857434858454dd81e18b,"ул. Большая Татарская, д.19/13",Moscow,RU,ЗАО «СитиБайк»,55.7398418,37.6333164,0.0
728cc735c56ca762c82333add5935f09,"Котельническая наб., д.1",Moscow,RU,ЗАО «СитиБайк»,55.7483533,37.645458,0.0
056ed8bae0089ac93e7fef3ec7c9d88b,"ул. Мясницкая, д.11",Moscow,RU,ЗАО «СитиБайк»,55.7617374,37.6331175,0.0
f1c97c7d5b755cfdce5184abcf672da0,"ул. Академика Волгина, д.6",Moscow,RU,ЗАО «СитиБайк»,55.6527248,37.5192587,0.0
b94546d8c1c074afc5a7ebec79735f7d,"ул. Профсоюзная, д.82, к.1 (ст. м. Калужская)",Moscow,RU,ЗАО «СитиБайк»,55.6565141,37.539523,0.0
5a75264e8117f765dc84229724274a01,"Нахимовский пр-т, д.51/21 (ст. м. Профсоюзная, выход №7)",Moscow,RU,ЗАО «СитиБайк»,55.6771438,37.5629419,0.0
b67349178e2c78564df83cf1a54c1c14,ул. Болотниковская (парк им. 70-ти летия Победы),Moscow,RU,ЗАО «СитиБайк»,55.6651369,37.5710478,0.0
d9b1f57b2043057f36aff01301cb6376,"ул. Селезнёвская, д.28",Moscow,RU,ЗАО «СитиБайк»,55.7806984,37.6079968,0.0
08df12c5e0990cdb1d9265d0bfbd0611,"Площадь Киевского вокзала, д.2",Moscow,RU,ЗАО «СитиБайк»,55.74496,37.56871,0.0
610a654a888eec82d4ada23833b0cf54,"2-й Щемиловский пер., д.14",Moscow,RU,ЗАО «СитиБайк»,55.778327,37.6089126,0.0
7e9578c3a252c85550b5e6003610db73,"ул. Сущёвский Вал, д.16, стр.1",Moscow,RU,ЗАО «СитиБайк»,55.7924677,37.6023012,0.0
4093c472b8997baefc0e9ed1a9bfe9fb,ст. м. Владыкино,Moscow,RU,ЗАО «СитиБайк»,55.8459731,37.5897749,0.0
0b7a44d9274c2f942962207723262ab4,"Дмитровское ш., д.13А, к.3 (ст. м. Тимирязевская)",Moscow,RU,ЗАО «СитиБайк»,55.8191407,37.5741987,0.0
09ee97a49e488e2a76be523c6f44c863,"ул. Крымский Вал, д.9, стр.1 (напротив входа в Парк Горького)",Moscow,RU,ЗАО «СитиБайк»,55.731981,37.6048252,0.0
06001ed3e93d6385423ecd5999a830e8,"Никитский б-р (напротив д.11/12, стр.3)",Moscow,RU,ЗАО «СитиБайк»,55.7553104,37.5999825,0.0
f1175d74389ddaedb642cb73cf07f3d5,"Чистопрудный б-р (напротив д.8, стр.1)",Moscow,RU,ЗАО «СитиБайк»,55.763247,37.641671,0.0
f9762e2370ed7070a52e1b5ebe79f120,"ул. Миклухо-Маклая, д.6",Moscow,RU,ЗАО «СитиБайк»,55.6533607,37.5006237,0.0
d993272ed499aa724bc833d3d910ee19,ст. м. Ленинский проспект (южный вестибюль),Moscow,RU,ЗАО «СитиБайк»,55.70674,37.58531,0.0
6464a91e701db71174ef9ec8e1e9a27a,"ул. Мясницкая, д.39, стр.1",Moscow,RU,ЗАО «СитиБайк»,55.76728,37.641517,0.0
7563646cc123ec67e784b9e9e4785a5d,"ул. Мастеркова, д.3 (ст. м. Автозаводская)",Moscow,RU,ЗАО «СитиБайк»,55.7082873,37.657647,0.0
015847c5caee603f7ef506b394327114,"ул. Советской Армии, д.17/52",Moscow,RU,ЗАО «СитиБайк»,55.792512,37.6158903,0.0
2e139f5f9fdeb525804a0b524f59dae6,"ул. Чаянова, д.15",Moscow,RU,ЗАО «СитиБайк»,55.776466,37.5959992,0.0
667f306fb11e9695f62cd3ef12af4931,"ул. Малая Никитская, д.24, стр.2",Moscow,RU,ЗАО «СитиБайк»,55.7591806,37.5874544,0.0
db82d769dd769868909068fbc45e02b0,"ул. Самотечная, д.9",Moscow,RU,ЗАО «СитиБайк»,55.776646,37.6182931,0.0
89d5354c2661f14f3e73f292b3efb006,"Продольный пр., д.115А (ст. м. ВДНХ, северный вестибюль)",Moscow,RU,ЗАО «СитиБайк»,55.8224303,37.6414493,0.0
6cc8d8aa15adea14ca839c99fd9c8bc7,"ул. Большая Дмитровка, д.2",Moscow,RU,ЗАО «СитиБайк»,55.759165,37.616547,0.0
374bcbba2f73bc96635fb50751337b6b,"Кремлёвская наб., д.1",Moscow,RU,ЗАО «СитиБайк»,55.7464818,37.6101276,0.0
fea7d384ea094ab54ddd70ff853d917d,"ул. Земляной Вал, д.2",Moscow,RU,ЗАО «СитиБайк»,55.763292,37.656429,0.0
82a761b49abcf6848ed3cf300abaa3bb,"ул. Каланчёвская, д.15А",Moscow,RU,ЗАО «СитиБайк»,55.7724956,37.6520953,0.0
bb312070a1581e8ce2611d54e9d0ec66,"Гоголевский б-р (напротив д.17, стр.1)",Moscow,RU,ЗАО «СитиБайк»,55.7468663,37.5997037,0.0
7b487d48c954cc785f37d71891887f4c,"ул. Кржижановского, вл.22, стр.2",Moscow,RU,ЗАО «СитиБайк»,55.678373,37.5745946,1.0
5c762b01d91189a4e67c8dbbaf9ffee0,"ул. Покровка, д.7/9-11",Moscow,RU,ЗАО «СитиБайк»,55.759038,37.642574,0.0
2a8a74c3ff09c4f58a1d94f351782422,"Серебряническая наб., д.29",Moscow,RU,ЗАО «СитиБайк»,55.750628,37.654944,0.0
f3df034fabe4ae3e679b100a8239df6e,Университетская пл. (напротив ГЗ МГУ),Moscow,RU,ЗАО «СитиБайк»,55.706203,37.535522,0.0
cebcc6abdd46b372480aee7f3e209d50,"ул. Профсоюзная, д.91 (ст. м. Беляево, южный вестибюль)",Moscow,RU,ЗАО «СитиБайк»,55.642252,37.526472,0.0
85f3ec27ce04299fc9ff1a0492256b2b,"ул. Введенского, д.13А",Moscow,RU,ЗАО «СитиБайк»,55.642636,37.541377,0.0
656c07164fdc420092fadcc6c63e2d49,"ул. Косыгина, д.18, стр.1",Moscow,RU,ЗАО «СитиБайк»,55.706491,37.554776,0.0
2605d7760b00767c9b0a544d3b520e4e,"Ленинский пр-т, д.45",Moscow,RU,ЗАО «СитиБайк»,55.7032184,37.5731731,0.0
9adfd982c04a8a652a79c95adc62f035,"Ленинский пр-т, д.79",Moscow,RU,ЗАО «СитиБайк»,55.6841473,37.540695,0.0
b293925cde3a9ff52e5f60387b876909,"ул. Профсоюзная, д.7/12",Moscow,RU,ЗАО «СитиБайк»,55.6843417,37.5701523,0.0
81699c0426152faa15795faa8ff09fbe,"ул. Профсоюзная, д.46, к.1",Moscow,RU,ЗАО «СитиБайк»,55.6736328,37.557668,0.0
9ad7aeae470d3bdd2c71dead401d1d24,"ул. Профсоюзная, д.58/32, к.2 (ст. м. Новые Черёмушки, выход №3)",Moscow,RU,ЗАО «СитиБайк»,55.6689814,37.5529925,0.0
708f3b951df10027c09d95e1f3e2b48e,"ул. Профсоюзная, д.61А (ст. м. Калужская)",Moscow,RU,ЗАО «СитиБайк»,55.6560575,37.5397093,0.0
97e0d50b7552e98f99c731a7dd812cbd,"ул. Академика Королёва, д.12Б",Moscow,RU,ЗАО «СитиБайк»,55.8218255,37.6095579,0.0
7a0d61bd7098fff8d6e9462128e7ae91,"Звёздный б-р, д.18/1",Moscow,RU,ЗАО «СитиБайк»,55.8154706,37.6299313,0.0
31d718005a1c5bc4596e70fb4e26b938,"ул. Шереметьевская, д.2 (ст. м. Марьина Роща, выход №5)",Moscow,RU,ЗАО «СитиБайк»,55.7935234,37.6168972,0.0
4d040d74073c14bbeb069899530962de,"1-й Красногвардейский пр., д.13, стр.1",Moscow,RU,ЗАО «СитиБайк»,55.7521422,37.5409806,0.0
5b56ca6b37db6cb871de0ea3c7195105,"ул. Верхняя Радищевская, д.22 (ст. м. Таганская)",Moscow,RU,ЗАО «СитиБайк»,55.74229,37.65385,0.0
7298a6807b71d24d172193ecd3f8969d,"Нахимовский пр-т, д.45, стр.1",Moscow,RU,ЗАО «СитиБайк»,55.6748694,37.5708842,0.0
0b49286980e24151696700ef1c46e209,"ул. Малая Грузинская, д.19/2",Moscow,RU,ЗАО «СитиБайк»,55.7654099,37.5719413,0.0
1e89f515523f5ef753c55abe6a39e6e2,"ул. Обручева, д.16, к.1",Moscow,RU,ЗАО «СитиБайк»,55.6589469,37.5145855,0.0
3674992733196b51766d06f0cb3154d8,ст. м. Сокольники,Moscow,RU,ЗАО «СитиБайк»,55.789152,37.679857,0.0
f62606a235efd8e713d631faa3b22d17,"ул. Руставели (напротив д.6, к.5)",Moscow,RU,ЗАО «СитиБайк»,55.8126995,37.5880136,0.0
4c228461e862be1d12004c2111c3385e,"ул. Черняховского, д.4А",Moscow,RU,ЗАО «СитиБайк»,55.80364,37.53454,0.0
2e3753f614660762bdf31faab237470d,"ул. Гарибальди, д.6, к.1",Moscow,RU,ЗАО «СитиБайк»,55.6760559,37.5372313,0.0
d47f6f1d0b876cb652978fa2db62406b,"Симферопольский б-р, д.15, к.5",Moscow,RU,ЗАО «СитиБайк»,55.653513,37.6057778,0.0
973189f1b99bd69666011edc2b1001bb,"ул. Вавилова, д.17",Moscow,RU,ЗАО «СитиБайк»,55.7015839,37.579688,0.0
ad1d1dffd51d164bb388d0498607aaf8,"ул. Мосфильмовская, д.1, стр.4",Moscow,RU,ЗАО «СитиБайк»,55.7233339,37.5300029,0.0
23a40f8b6cd50660ad88596b7f13cddc,"ул. Сокольнический Вал, д.8",Moscow,RU,ЗАО «СитиБайк»,55.7925135,37.6599869,0.0
3967b06da4ed9e9624c96ab2d2e67127,"ул. Стромынка, д.13 (пересеч. с ул. Короленко)",Moscow,RU,ЗАО «СитиБайк»,55.7940252,37.6944615,0.0
6298f2ed874fee8da6afd2a39bf24cfd,"ул. Стромынка, д.20 (Технологический университет)",Moscow,RU,ЗАО «СитиБайк»,55.7943402,37.6994467,0.0
0fa61c446116e1b0ea944370e0fcd753,"пр-т Мира, д.102, к.2",Moscow,RU,ЗАО «СитиБайк»,55.8016402,37.6363469,0.0
0062d561dc4cccaade9fddd0214e9366,"ул. Краснопрудная, д.13А (ст. м. Красносельская)",Moscow,RU,ЗАО «СитиБайк»,55.7798124,37.6661093,0.0
0200410800e554745b7166109c078d69,"пр-т Мира, д.114Б, стр.2 (ст. м. Алексеевская)",Moscow,RU,ЗАО «СитиБайк»,55.807908,37.6376553,0.0
40e2615289de37474e1ffe4114175406,"ул. Бауманская, д.33/2 (ст. м. Бауманская)",Moscow,RU,ЗАО «СитиБайк»,55.772242,37.6788565,0.0
a1ecc44a4e2cec84595a3d9e75569113,"пр-т Мира, д.92, стр.2 (ст. м. Рижская)",Moscow,RU,ЗАО «СитиБайк»,55.7922984,37.635781,0.0
77ba296275b01a0b6fc2f12f60000be2,"ул. Люсиновская, д.48/50, к.10 (пересеч. с ул. Павла Андреева)",Moscow,RU,ЗАО «СитиБайк»,55.7209237,37.6220242,0.0
4f99754747ba8baf9dd38f357fc11955,Болотная пл. (напротив к/т Ударник),Moscow,RU,ЗАО «СитиБайк»,55.744008,37.615425,0.0
4f4e26262c79bad9d2d03c69d271fcea,"4-й Добрынинский пер., д.2/10",Moscow,RU,ЗАО «СитиБайк»,55.7273527,37.6197354,0.0
d81a04ae10ac8f0190af76049b0bffc2,"3-я Рыбинская ул., д.30",Moscow,RU,ЗАО «СитиБайк»,55.7888271,37.663779,0.0
62be7980179e828d622c7fd421329493,"ул. Планетная, д.49",Moscow,RU,ЗАО «СитиБайк»,55.8063388,37.5382933,0.0
25798acf319d5d08d269cbf078bcf86d,"Хорошёвское ш., д.82 (ст. м. Полежаевская)",Moscow,RU,ЗАО «СитиБайк»,55.7779297,37.5212052,1.0
9fb2b4997f388f0b46448e9660286333,"Покровский б-р (напротив д.8, стр.1)",Moscow,RU,ЗАО «СитиБайк»,55.757313,37.647211,0.0
78e8d5afc15a3ed01ea73771d61e9319,"Камергерский пер., д.4",Moscow,RU,ЗАО «СитиБайк»,55.759361,37.612442,0.0
3dd69fbc931254ecd2f1334cc6d33d59,"ул. Островитянова, д.29/120 (ст. м. Коньково, выход №8)",Moscow,RU,ЗАО «СитиБайк»,55.6345077,37.520142,0.0
5faee577179b8d15c50eebb7a83d3693,"ул. Новослободская, д.11, стр.1",Moscow,RU,ЗАО «СитиБайк»,55.7798721,37.6002618,0.0
289eee0dc1857f3dc305d9ade6d790c3,"Смоленская наб., д.2",Moscow,RU,ЗАО «СитиБайк»,55.7460166,37.5757323,0.0
03ec6f6161b2711b2252a69a643fb5d9,"Краснопресненская наб., д.10, стр.5",Moscow,RU,ЗАО «СитиБайк»,55.7540692,37.5605165,0.0
b3965c81ce3597f5559dc2a176685da8,"ул. Земляной Вал, д.14/16, стр.1",Moscow,RU,ЗАО «СитиБайк»,55.7610338,37.6571565,0.0
6a685b441d9e1347563cf8eac1fd5841,"Бережковская наб., д.20, стр.19",Moscow,RU,ЗАО «СитиБайк»,55.7331476,37.5517684,0.0
daba147fdb383c2f1c188692b13d34d8,"Краснопресненская наб., д.14, стр.1",Moscow,RU,ЗАО «СитиБайк»,55.748965,37.5465367,0.0
eb13a3bfe40cabab184b0d7b598e69e0,"Зубовская пл., д.3, стр.1",Moscow,RU,ЗАО «СитиБайк»,55.7383154,37.5861519,0.0
9bee29e68d1243ee2a4810f47668e90c,ул. Большая Никитская (напротив д.13),Moscow,RU,ЗАО «СитиБайк»,55.7566653,37.6046504,0.0
aab197684ed18d02b645ea19f2b23140,"ул. Большая Якиманка, д.16 (ст. м. Октябрьская (радиальная))",Moscow,RU,ЗАО «СитиБайк»,55.730772,37.612528,0.0
16ab548ea232f319d44803457ff9300e,ул. Садовая-Спасская (напротив д.26),Moscow,RU,ЗАО «СитиБайк»,55.7703931,37.6429131,0.0
ab3d89417eb8c4e8083dc1a3b8d0276c,"ул. Малая Грузинская, д.41",Moscow,RU,ЗАО «СитиБайк»,55.7724736,37.5730793,0.0
997e20573f1ddfa7db66694351c95d8b,"ул. Старая Басманная, д.21/4, стр.1",Moscow,RU,ЗАО «СитиБайк»,55.7671544,37.6641747,0.0
38a38e553fde3666c003990fba48378e,"Краснопресненская наб., д.16, стр.1",Moscow,RU,ЗАО «СитиБайк»,55.747807,37.543724,0.0
b17c8f55d8062c045c342ba8cb2a9fb4,Столешников пер. (напротив д.11),Moscow,RU,ЗАО «СитиБайк»,55.763407,37.61731,0.0
4e29261d21fe00195129005bc42950ff,"ул. Мантулинская, д.2",Moscow,RU,ЗАО «СитиБайк»,55.75685,37.558939,0.0
e9a2479f63025f838500f0426a037f98,"Варшавское ш., д.100",Moscow,RU,ЗАО «СитиБайк»,55.6452564,37.6192664,0.0
39cb09032f33eda18a0a0a1e6946baae,"ул. Гашека, д.2, стр.1",Moscow,RU,ЗАО «СитиБайк»,55.767711,37.587921,0.0
7e4822f2fe6f30c69548c1a0693db1fa,"ул. Дмитрия Ульянова, д.32А",Moscow,RU,ЗАО «СитиБайк»,55.6845728,37.5828562,0.0
e5c579dbfb3d31134560d57d9b9c12a8,"ул. Болотниковская, д.34",Moscow,RU,ЗАО «СитиБайк»,55.659118,37.5942492,0.0
22a61dfc33d7b6b4a878562fa48e19ec,"Ленинский пр-т, д.69",Moscow,RU,ЗАО «СитиБайк»,55.69062,37.550726,0.0
ed16add4d2d611a8f23b523639a77134,"ул. Большая Тульская, д.13",Moscow,RU,ЗАО «СитиБайк»,55.710801,37.622305,0.0
643a02968d26955b70a225c3aeb7c03d,"ул. Валовая, д.20",Moscow,RU,ЗАО «СитиБайк»,55.730521,37.629933,0.0
7b6092fcd12ffd7f38227fa258fa329a,"ул. Плющиха, д.39",Moscow,RU,ЗАО «СитиБайк»,55.740264,37.576753,0.0
bcae70c8494b4bac92ee98a4a7351842,"Ломоносовский пр-т (дублёр), пересечение с ул. Лебедева",Moscow,RU,ЗАО «СитиБайк»,55.698436,37.528489,0.0
f777197b7bd3686c68bcbd117aebe9e3,"Ломоносовский пр-т (дублёр), пересечение с ул. Менделеева",Moscow,RU,ЗАО «СитиБайк»,55.701742,37.522672,0.0
2a86a63652d2d3a6808ac442e5533cad,"ул. Криворожская, д.33Г",Moscow,RU,ЗАО «СитиБайк»,55.6716545,37.6090521,0.0
a5d01c268a9e05795b251a8fdbf93c75,"ул. Льва Толстого, д.14А",Moscow,RU,ЗАО «СитиБайк»,55.73311,37.58823,0.0
6ed9a57da5cc488f95b9946c42347aaf,"мкрн. Чертаново Северное, д.4, к.401",Moscow,RU,ЗАО «СитиБайк»,55.636752,37.594296,0.0
161bcf9728915d40058ba21a3a4e4268,"ул. Миклухо-Маклая, д.44 (вход в Битцевский парк)",Moscow,RU,ЗАО «СитиБайк»,55.637955,37.543148,0.0
1a2495b658684341bab1fafd60fee09e,ул. Солянка (напротив д.8),Moscow,RU,ЗАО «СитиБайк»,55.753189,37.638913,0.0
e6d0cfdcec6622b2cc0b4622006b175e,"Ломоносовский пр-т, д.29, к.3 (ст. м. Ломоносовский пр-т, выход №2)",Moscow,RU,ЗАО «СитиБайк»,55.705293,37.514291,0.0
576045ed87e60cf4646d0b8c86ce54b5,ул. Академика Хохлова (у входа в ГЗ МГУ),Moscow,RU,ЗАО «СитиБайк»,55.701597,37.530847,1.0
bd433dd58ecb3d89a6a2f403545a6ac5,"Шмитовский пр., д.16, стр.2",Moscow,RU,ЗАО «СитиБайк»,55.7575043,37.5457088,0.0
c8e9c23557f7175d561353720e53727c,"ул. Верхняя Масловка, д.10, стр.4",Moscow,RU,ЗАО «СитиБайк»,55.79306,37.56551,0.0
d45e27cfe78f54affad21cb309fb8ce4,"пл. Тверская Застава, д.7",Moscow,RU,ЗАО «СитиБайк»,55.7770608,37.5830376,0.0
9f907266ea07f0cf99d39e284171b8e0,"ул. Профсоюзная, д.104 (ст. м. Беляево, южный вестибюль)",Moscow,RU,ЗАО «СитиБайк»,55.6420084,37.5256107,0.0
33707a9bee2e24d7f4d06d568e31a673,"ул. Шарикоподшипниковская, д.24 (ст. м. Дубровка, выход №3)",Moscow,RU,ЗАО «СитиБайк»,55.717707,37.6763299,0.0
f54cc97b44dcd7c2d0da560b18f20c95,"ул. Лесная, д.63/43, стр.2",Moscow,RU,ЗАО «СитиБайк»,55.7838658,37.5963795,0.0
eea352bd15260759e8479e31fb1fce22,"ул. Мытная, д.74",Moscow,RU,ЗАО «СитиБайк»,55.7120063,37.621316,0.0
840827416ec7c6b9df841accbeeb41d4,"ул. Сергея Эйзенштейна, д.8",Moscow,RU,ЗАО «СитиБайк»,55.8334316,37.6374584,0.0
2e559168218650151a846f65cea69044,"ул. Мосфильмовская, д.55",Moscow,RU,ЗАО «СитиБайк»,55.70393,37.49521,0.0
82eb1f966d1b1101b23c7632e26b61b0,"ул. Каланчёвская, д.10, стр.3",Moscow,RU,ЗАО «СитиБайк»,55.7763965,37.6501702,0.0
075c8d22332212d11fc9d2dbcf9132a2,"ул. Академика Королёва, д.12А",Moscow,RU,ЗАО «СитиБайк»,55.8218703,37.6042362,0.0
f6137093fa8d52e297ab77c23e462966,"1-я Останкинская ул., д.55",Moscow,RU,ЗАО «СитиБайк»,55.823283,37.6341961,0.0
d572a47a07ddc5603d306bd7993a92a3,"ул. Б. Серпуховская, д. 22/21, стр.3 (ст. м. Серпуховская)",Moscow,RU,ЗАО «СитиБайк»,55.7266781,37.6250142,0.0
45007c22b72a0ac5ff3291db4f932f99,"ул. Новый Арбат, д.1",Moscow,RU,ЗАО «СитиБайк»,55.752609,37.599867,0.0
a890c42393b9673db62a7128fbd389a9,пл. Сретенские ворота (напротив д.1),Moscow,RU,ЗАО «СитиБайк»,55.766613,37.631618,0.0
2c65197ee446ce07d3bd9cdc06a13307,Чистопрудный б-р (ст. м. Чистые пруды),Moscow,RU,ЗАО «СитиБайк»,55.764719,37.639141,0.0
75a6ea36b184bc1a11919d5b73cc81fa,"ул. Новый Арбат, д.21",Moscow,RU,ЗАО «СитиБайк»,55.752153,37.584725,0.0
5ae58d44fb238951ba27874049433e8c,"ул. Мытная, д.15",Moscow,RU,ЗАО «СитиБайк»,55.7204756,37.6178259,0.0
da531906ec341e906922c1cd9c9aef29,"ул. Павловская, д.7",Moscow,RU,ЗАО «СитиБайк»,55.72113,37.62786,0.0
1e6450d67bfa11b9a7dfc376f7b37190,"ул. Милашенкова, д.1 (ст. м. Фонвизинская)",Moscow,RU,ЗАО «СитиБайк»,55.8218449,37.589078,0.0
a7cbfd1e3fc5f85de4a8afb7fc7915f7,ул. Большая Якиманка (напротив д.18),Moscow,RU,ЗАО «СитиБайк»,55.7396445,37.6167027,0.0
b75e7e44c9fef08c80afb77ed4610f3d,"Покровский б-р (напротив д.12, стр.1)",Moscow,RU,ЗАО «СитиБайк»,55.755462,37.648355,0.0
b88f003ed47fa671a64f2ec218713485,Тургеневская пл. (ст. м. Тургеневская),Moscow,RU,ЗАО «СитиБайк»,55.765334,37.636329,0.0
7e569621bb0ba17832ff08c2640d93a4,"ул. Дубининская, д.25, стр.1",Moscow,RU,ЗАО «СитиБайк»,55.726421,37.637515,1.0
5892f6247f9145af8ffb9942fda74e07,Никитский б-р (напротив д.23/14/9),Moscow,RU,ЗАО «СитиБайк»,55.757163,37.598667,0.0
7374de9d718954a0d2b5a298d2c5005d,Страстной б-р (напротив д.16),Moscow,RU,ЗАО «СитиБайк»,55.768066,37.613347,0.0
03e302daebb7cc2ed81d76166606fb1e,"ул. Большая Дмитровка, д.5/6, стр.5",Moscow,RU,ЗАО «СитиБайк»,55.759865,37.615807,0.0
6ac154755a8114dd4cb9aee8227901b7,"Климентовский пер., д.23, стр.1 (ст. м. Третьяковская)",Moscow,RU,ЗАО «СитиБайк»,55.740815,37.625638,0.0
12188283ef7655e622ab6017d58c91de,"Смоленский б-р, д.22/14",Moscow,RU,ЗАО «СитиБайк»,55.7414275,37.5852946,0.0
4f2a54c852f6eafeb384cf7005927c48,"ул. Усачева, д.2, стр.1",Moscow,RU,ЗАО «СитиБайк»,55.730695,37.576903,0.0
42725b223624ddefb400db17c7dcd0bd,"ул. Большая Полянка, д.50/1, стр.1",Moscow,RU,ЗАО «СитиБайк»,55.73218,37.620018,0.0
53012e8c71ddee4ef1dd754775b8ddcc,"ул. Люсиновская, д.12",Moscow,RU,ЗАО «СитиБайк»,55.7241978,37.6223722,0.0
455df6fefeb8ab6efb81274c5db3d280,"ул. Фадеева, д.4",Moscow,RU,ЗАО «СитиБайк»,55.774431,37.599413,0.0
e30fc522f0d4227ec985e4f760f2d75c,"Лаврушинский пер. (напротив д.4, стр.1)",Moscow,RU,ЗАО «СитиБайк»,55.743048,37.6202,0.0
791d3ebadeea8b3f9eaa2f95a5d8d4d9,"Хамовнический Вал, д.40, стр.1",Moscow,RU,ЗАО «СитиБайк»,55.727595,37.550435,0.0
467412e67f17f34b23807f08bda84738,"ул. Кузнецкий мост, д.13/9, стр.1",Moscow,RU,ЗАО «СитиБайк»,55.762217,37.623177,0.0
9826f9b6f299346da37bb7966265509e,"Ленинградский пр-т, д.14, к.1",Moscow,RU,ЗАО «СитиБайк»,55.78045,37.57797,0.0
b7eb3b354bc0906277efcf1032f87a3a,"ул. 1905 года, д.4, стр.2 (ст. м. Улица 1905 года, выход к ул. Пресненский Вал)",Moscow,RU,ЗАО «СитиБайк»,55.7637,37.56245,0.0
dea5de7ce2eb113883503728b2f107a5,"Ленинский пр-т, д.34/1",Moscow,RU,ЗАО «СитиБайк»,55.707107,37.578173,0.0
af8a5bc39674b25dd8aa039bf753c710,"Ленинский пр-т, д.54",Moscow,RU,ЗАО «СитиБайк»,55.697476,37.560729,0.0
d7728c299521eff240ff21e95c34d5d5,"2-я Брестская ул., д.31",Moscow,RU,ЗАО «СитиБайк»,55.7733,37.586215,0.0
66baf82c84e64adf8da5999fcb96643d,"пер. Сивцев Вражек, д.26, стр.1",Moscow,RU,ЗАО «СитиБайк»,55.747411,37.592209,0.0
520b424849dfaf11f502882ca7ffaf87,"пл. Джавахарлала Неру, д.1 (ст. м. Университет, выход №2)",Moscow,RU,ЗАО «СитиБайк»,55.693257,37.535463,0.0
86c3b19cc09ffab3edbd119aa558ab1e,"Ленинский пр-т, д.73/8",Moscow,RU,ЗАО «СитиБайк»,55.688153,37.546468,0.0
c1df8bbe23c058633efa207ad5c1cf0d,"Ломоносовский пр-т (дублёр, напротив д.1, стр.64)",Moscow,RU,ЗАО «СитиБайк»,55.695176,37.533756,0.0
543c6d6a87d5b3b26d20c3fceff002f2,ст. м. Краснопресненская,Moscow,RU,ЗАО «СитиБайк»,55.7604391,37.5776708,0.0
523d88266d56e0dd0968e13c6a1f81f2,"Ленинский пр-т, д.9, стр.3",Moscow,RU,ЗАО «СитиБайк»,55.724388,37.605352,0.0
f3fdebf0a789a30cae2b054cc198ec87,"Москворецкая наб., д.2А",Moscow,RU,ЗАО «СитиБайк»,55.7478923,37.6386809,0.0
79c685703df4bbd82bd82c5d7a169066,"ул. Лесная, д.6",Moscow,RU,ЗАО «СитиБайк»,55.7772628,37.5870704,0.0
ae63787abdb19d4def7d8927ba9bbd34,"Ленинский пр-т, д.60/2",Moscow,RU,ЗАО «СитиБайк»,55.694853,37.556333,0.0
b6a6c4ed891bd4d5b8975f8a63e02559,"ул. Нижняя Масловка, д.5, к.1",Moscow,RU,ЗАО «СитиБайк»,55.79185,37.5841,0.0
1b49e90a304c9bfde036b16d4d031675,"Цветной б-р (напротив д.1, ст. м. Трубная)",Moscow,RU,ЗАО «СитиБайк»,55.768003,37.621486,0.0
c48a25b68f5b2881152b316bd1b07eca,"Цветной б-р., д.34, стр.1",Moscow,RU,ЗАО «СитиБайк»,55.7730885,37.6212721,0.0
b72110e10729b85ef04fa19c99d2d0de,"ул. Новокузнецкая, д.43/16, стр.1 (ст. м. Павелецкая (кольцевая))",Moscow,RU,ЗАО «СитиБайк»,55.7310887,37.6358074,0.0
0479ade6f7c64dc1cceca36ea533aebe,"Ленинградский пр-т, д.44",Moscow,RU,ЗАО «СитиБайк»,55.7950047,37.5455944,0.0
63507946c3f4e0d23c57ef039a846d9b,"ул. Каретный Ряд, д.3, стр.11",Moscow,RU,ЗАО «СитиБайк»,55.7700911,37.6116459,0.0
fe53f8a2b699f48fbe3333bce850676b,"ул. Пречистенка, д.34",Moscow,RU,ЗАО «СитиБайк»,55.7400913,37.5896349,0.0
d0c3e8b645d63de32e5a9bbb78b3338a,"ул. Пятницкая, д.25, стр.1Д (рядом со ст. м. Новокузнецкая)",Moscow,RU,ЗАО «СитиБайк»,55.7420854,37.6286203,0.0
97562ec2e3d6ad4577609b1c41b9fa7f,"ул. Пятницкая, д.48, стр.1",Moscow,RU,ЗАО «СитиБайк»,55.7353228,37.6276564,0.0
eaf391d8b5f33818c84849bac234031d,"Калужская пл., д.1, к.3",Moscow,RU,ЗАО «СитиБайк»,55.7277408,37.6121883,0.0
9a51671cedd03f43100062210f069800,"Ленинградский пр-т, д.54/1",Moscow,RU,ЗАО «СитиБайк»,55.79759,37.53978,0.0
2e895bd02da3d209f39c648e34a531c3,"Чапаевский пер., д.2",Moscow,RU,ЗАО «СитиБайк»,55.80273,37.52036,0.0
518c583dcf01b0d345ffcafb7957cd1e,"Ленинградский пр-т, д.39, стр.17",Moscow,RU,ЗАО «СитиБайк»,55.79538,37.54216,0.0
cbd18212f646618729c273748ef13da1,"ул. Пресненский Вал, д.24",Moscow,RU,ЗАО «СитиБайк»,55.7692458,37.5655623,0.0
be39589c35f616f05f699633f613f627,"Мичуринский пр-т, д.12, к.1",Moscow,RU,ЗАО «СитиБайк»,55.7032223,37.5073382,0.0
5b18f1cac4eb76bee8da2deb0e8d12e8,"пр-т Вернадского, д.11/19",Moscow,RU,ЗАО «СитиБайк»,55.6897298,37.530764,0.0
875d1bbdf17b0faaa720f567420db3f4,"Ленинский пр-т, д.86",Moscow,RU,ЗАО «СитиБайк»,55.6780815,37.529704,0.0
2fe9107f0396f2868f72a75a842efdb8,"Ленинский пр-т, д.15А",Moscow,RU,ЗАО «СитиБайк»,55.7210015,37.6002317,0.0
de13ef2ca8cb01d716d9fdd345a0ea47,"ул. Шаболовка, д.32 (ст. м. Шаболовская)",Moscow,RU,ЗАО «СитиБайк»,55.718604,37.6080592,0.0
9d896e53d84b60feb90b4d95a6fb9571,"ул. Орджоникидзе, д.11, стр.1/2",Moscow,RU,ЗАО «СитиБайк»,55.7098155,37.5943736,0.0
623c9546122a3fdfba5125f857f76792,"Ленинградский пр-т, д.33, к.1",Moscow,RU,ЗАО «СитиБайк»,55.78654,37.56091,0.0
61c91a0a4039f75dc1ece4cb78ed637d,"Ленинский пр-т, д.27",Moscow,RU,ЗАО «СитиБайк»,55.71599,37.5931,0.0
1729c983d28270b50ba2303c7a5c44aa,"ул. Шверника, д.13, к.1",Moscow,RU,ЗАО «СитиБайк»,55.6914923,37.5890604,0.0
dcd831593b98f07142c6c1746958fad8,"ул. Мосфильмовская, д.17/25",Moscow,RU,ЗАО «СитиБайк»,55.7155927,37.5159465,1.0
d6646acb4de14ec6b456c2495a6b80ed,Дворцовая аллея (Пл. Космонавта Комарова),Moscow,RU,ЗАО «СитиБайк»,55.79435,37.55366,0.0
a1e33626a004ccf4dd7e77963cacea85,"Ломоносовский пр-т, д.43/40",Moscow,RU,ЗАО «СитиБайк»,55.7105268,37.5072476,0.0
e362557115996b1bac16a5e3dca5bdd4,"Ломоносовский пр-т, д.2/62, стр.8",Moscow,RU,ЗАО «СитиБайк»,55.6846569,37.5521608,1.0
4ab446b146af6eb5179d4ccf6b03b12a,"ул. Планетная, д.17",Moscow,RU,ЗАО «СитиБайк»,55.80034,37.54917,0.0
cb562e1febcb420a64c4c05c53f87f75,"Хоромный туп, д.2/6 (ст. м. Красные Ворота)",Moscow,RU,ЗАО «СитиБайк»,55.768248,37.649046,0.0
22a90b5ece5ce6c035ef6db54047d372,"ул. Профсоюзная, д.55",Moscow,RU,ЗАО «СитиБайк»,55.66466,37.5492,0.0
198e86add2a5ab08d78a55ac7e26d58a,"Комсомольский пр-т, д.5/2",Moscow,RU,ЗАО «СитиБайк»,55.73208,37.59244,0.0
f43903e3e4f0ddfb254fa322e2f7ebfe,"ул. Костикова (2-я Звенигородская ул., д.13, стр.42)",Moscow,RU,ЗАО «СитиБайк»,55.7612,37.55135,0.0
e0ead12739dd8bc2cdb269630e70c216,"Георгиевский пер., д.2",Moscow,RU,ЗАО «СитиБайк»,55.7584711,37.6142074,0.0
52fe9eac4ebe58305ce7baaada0a75c1,МЦК Хорошёво,Moscow,RU,ЗАО «СитиБайк»,55.776742,37.506187,0.0
d3fe307613b9ba7ff0de642ba722d2e0,"Саввинская наб., д.9",Moscow,RU,ЗАО «СитиБайк»,55.7371931,37.5683739,0.0
e51f7f3512248dc5e28ee39134a182a8,"2-я Бауманская ул., д.3",Moscow,RU,ЗАО «СитиБайк»,55.768817,37.684929,2.0
1746fca77ab2c760f55ea8f6dc5d7010,"1-я Тверская-Ямская ул., д.11",Moscow,RU,ЗАО «СитиБайк»,55.7724933,37.5916535,0.0
ae5e6544063dc043119adbec62fc1791,"1-я Дубровская ул., д.7/10",Moscow,RU,ЗАО «СитиБайк»,55.725931,37.670731,0.0
c120295e254079785987ca22c8630a71,"ул. 800-летия Москвы, д.11, к.1",Moscow,RU,ЗАО «СитиБайк»,55.8818528,37.5660673,0.0
ca0d65ab2dfeb31bef4441595b0acec3,"Мичуринский пр-т, д.38 (ст. м. Раменки)",Moscow,RU,ЗАО «СитиБайк»,55.6967984,37.4960883,0.0
17912420f01ac4005b89b864ce8d7f86,"пр-т Вернадского, д.70А",Moscow,RU,ЗАО «СитиБайк»,55.67144,37.49611,0.0
f15bedf20e0b0abef8b8990173f6aaec,"Ходынский б-р, д.3",Moscow,RU,ЗАО «СитиБайк»,55.78664,37.53766,0.0
db955f89da618b5a2e52be3dfda7b3f7,"ул. Гризодубовой, д.2",Moscow,RU,ЗАО «СитиБайк»,55.7822,37.53099,0.0
ca9d24bcf975df88e2ebeab6a39e4b5a,"пр-т Мира, д.142, стр.2 (ст. м. ВДНХ, выход к ул. Кибальчича)",Moscow,RU,ЗАО «СитиБайк»,55.81938,37.64044,0.0
fd649b9d95349a88f806a623243f11eb,"ул. Нижняя Красносельская, д.40/12, к.11",Moscow,RU,ЗАО «СитиБайк»,55.77471,37.6726,0.0
f93ab32292b66d7cd1775cd9d5c32750,"5-я ул. Ямского поля, д.24",Moscow,RU,ЗАО «СитиБайк»,55.78834,37.57815,0.0
ee0aa956f7638a130c7d0a4b76c66469,"Триумфальная пл., д.2 (вход в сад Аквариум)",Moscow,RU,ЗАО «СитиБайк»,55.768127,37.594487,0.0
b50155f5d4dd5ce40cc05e8835cf2d3e,"ул. Садовая-Триумфальная, д.4/10",Moscow,RU,ЗАО «СитиБайк»,55.7708538,37.5997612,0.0
3cdcdfb6ad288d13dd39c68bdcb0543c,"ул. Улофа Пальме, д.1",Moscow,RU,ЗАО «СитиБайк»,55.717902,37.513659,0.0
ece47531a5c00f17403520ce7cd5f46e,"ул. Люсиновская, д.2 (ст. м. Добрынинская)",Moscow,RU,ЗАО «СитиБайк»,55.7290315,37.6231799,0.0
c5036ee742ab1c0e8c759dfe75b2b4c5,"ул. Руставели, д.19 (ст. м. Бутырская)",Moscow,RU,ЗАО «СитиБайк»,55.8142078,37.6011372,0.0
d64a3c3c36e3528421fdb01eab370f2f,"ул. Тверская, д.18",Moscow,RU,ЗАО «СитиБайк»,55.7657169,37.6043076,0.0
4920d98ef8cf5a76558450bd13799eff,"Преображенская пл., д.12 (ст. м. Преображенская площадь)",Moscow,RU,ЗАО «СитиБайк»,55.794816,37.714144,0.0
e181a08ea9f58400a92c074eb9b67315,"Токмаков пер., д.12/20",Moscow,RU,ЗАО «СитиБайк»,55.7655969,37.6698876,0.0
c0ce545ee6ed40197d0885ac6f02f549,ст. м. Шипиловская (выход №5),Moscow,RU,ЗАО «СитиБайк»,55.6220611,37.7434632,0.0
2f4d2fda0b0b05c88b3a4ee3b94297bd,"Варшавское ш., д.12",Moscow,RU,ЗАО «СитиБайк»,55.69684,37.62041,0.0
7d939b84b8109c1c7f15b46126a37da3,"Варшавское ш., д.26 (ст. м. Нагатинская)",Moscow,RU,ЗАО «СитиБайк»,55.68397,37.62275,0.0
b16b50f39812d2ebc85b4a835de65ae0,ул. Орджоникидзе (напротив д.5),Moscow,RU,ЗАО «СитиБайк»,55.7107,37.60075,0.0
863b700e950e594a9b17990192992221,"ул. Полковая, д.1, стр.2",Moscow,RU,ЗАО «СитиБайк»,55.798216,37.602618,0.0
1648224f376e6184bd67817710e06177,ст. м. Динамо (южный выход),Moscow,RU,ЗАО «СитиБайк»,55.78894,37.55936,0.0
7063fe5ccc3e8477f8c58853aab6b6c3,"Ленинградский пр-т, д.62А (ст. м. Аэропорт, выход в город к ул. Черняховского)",Moscow,RU,ЗАО «СитиБайк»,55.80132,37.53124,0.0
0b1a25ac9468b9013185fed1b62c7eec,"Мичуринский пр-т, д.31, к.4",Moscow,RU,ЗАО «СитиБайк»,55.6946806,37.4960798,0.0
9dd0015bc62bfe7a3d74e620000ee485,"ул. Удальцова, д.40А",Moscow,RU,ЗАО «СитиБайк»,55.68298,37.49097,0.0
5481612080c70a085a02c99d5cdc83fd,"пр-т Вернадского, д.12",Moscow,RU,ЗАО «СитиБайк»,55.68228,37.51531,0.0
876188160cf6e8aa8672dca68ff44566,"пр-т Вернадского, д.86Д",Moscow,RU,ЗАО «СитиБайк»,55.66072,37.48128,0.0
2c393ed69f003f5447d25f1ddc463b9a,"пр. Берёзовой Рощи, д.2",Moscow,RU,ЗАО «СитиБайк»,55.78611,37.5198,0.0
329f1d7b5aeee04f62fbfdc31dbe3a02,"пр-т Мира, д.182",Moscow,RU,ЗАО «СитиБайк»,55.82637,37.64784,0.0
ed8e448f72fb1dde0cef59fb3d9172a9,"ул. Краснобогатырская, д.89",Moscow,RU,ЗАО «СитиБайк»,55.80138,37.71148,0.0
bae991f497d6779a3aaedeef55b515a5,"пр-т Мира, д.123",Moscow,RU,ЗАО «СитиБайк»,55.82667,37.64668,0.0
76b3138bed4b3f35f881267adbf37ced,"ул. Профсоюзная, д.43 (ст. м. Новые Черёмушки, выход №2)",Moscow,RU,ЗАО «СитиБайк»,55.66923,37.5539,0.0
6aa25f0adbe044ea67fccb395d42e6af,"ул. Земляной Вал, д.33",Moscow,RU,ЗАО «СитиБайк»,55.7569598,37.6580268,0.0
10f8f4cd8add8d5eef968d68bf65a77b,"ул. Воронцовская, д.50 (ст. м. Крестьянская Застава)",Moscow,RU,ЗАО «СитиБайк»,55.7323179,37.665312,0.0
4773c4ac79f1ef66bcaf633f5238c8e7,"1-я Тверская-Ямская ул., д.4 (ст. м. Маяковская, выход на 1-ю Тверскую-Ямскую ул.)",Moscow,RU,ЗАО «СитиБайк»,55.7712466,37.5943833,0.0
a625544722c09270d1a2a9f53d7d2328,"ул. Пречистенка, д.12/2, стр.1",Moscow,RU,ЗАО «СитиБайк»,55.7434021,37.5977164,0.0
7aa885b8033a252f39c82814d2fbb36d,"ул. Таганская, д.31/22",Moscow,RU,ЗАО «СитиБайк»,55.7394363,37.6699924,0.0
4074aa1c54ba95eec20778c5ca51ad7a,ст. м. Зябликово (выход №9),Moscow,RU,ЗАО «СитиБайк»,55.6137016,37.7456143,0.0
34c156d0c705750fd8e5b949d99595bb,"Волгоградский пр-т, д.32, стр.21 (ст. м. Волгоградский пр-т, выход №2)",Moscow,RU,ЗАО «СитиБайк»,55.7246532,37.6878922,0.0
1ef91fc87639d015d008b1a6048f35dc,"ул. Трифоновская, д.61, к.1",Moscow,RU,ЗАО «СитиБайк»,55.7904,37.63324,0.0
0d1efc688360bbbf4cfd43a58dd02376,"ул. Генерала Ермолова, д.4",Moscow,RU,ЗАО «СитиБайк»,55.73511,37.51768,0.0
1f615bca9d9c61238074cc2c7c0761ff,"Ленинградский пр-т, д.73 (ст. м. Сокол, выход №1)",Moscow,RU,ЗАО «СитиБайк»,55.80443,37.51517,0.0
1d796fa241f8329e0946f699f21f54a2,"Ленинградский пр-т, д.68",Moscow,RU,ЗАО «СитиБайк»,55.8037654,37.5212331,0.0
9228123e26df8125ca5a849d8bb6b850,"ул. Куусинена, д.13",Moscow,RU,ЗАО «СитиБайк»,55.78389,37.51401,0.0
d1a5341976058e6151400740730e3eeb,Славянская площадь (напротив д.2),Moscow,RU,ЗАО «СитиБайк»,55.754015,37.634688,0.0
36395065eac1520f50a049b9149825b6,"Никитский б-р (напротив д.8А/3, стр.1)",Moscow,RU,ЗАО «СитиБайк»,55.7530475,37.6014341,0.0
c571795fa048b70748239f2b898e11ec,"ул. Садовая-Кудринская, д.1-3а",Moscow,RU,ЗАО «СитиБайк»,55.7597006,37.5848176,0.0
b06d05cd6921a96ca69b842c65aaf78d,"ул. Старая Басманная, д.15, стр.2 (Сад им. Баумана)",Moscow,RU,ЗАО «СитиБайк»,55.76547,37.660107,0.0
6c1c462440135272bb00696c74e559cf,"ул. Дубнинская, д.12, к.3",Moscow,RU,ЗАО «СитиБайк»,55.8647675,37.5713646,0.0
21bee2c836d5d8581d33bf936cae809f,"ул. Мусы Джалиля, вл.13а",Moscow,RU,ЗАО «СитиБайк»,55.626515,37.7426075,0.0
5d49e878567057e4320f31005f79ede5,"Варшавское ш., д.58, стр.3",Moscow,RU,ЗАО «СитиБайк»,55.66388,37.61995,0.0
c84b1ba9252233ac581c7440c7cdfe4c,"ул. Удальцова, д.6",Moscow,RU,ЗАО «СитиБайк»,55.67341,37.51384,0.0
610feaeffa48168a54753118a258ae4b,"ул. Большая Переяславская, д.15",Moscow,RU,ЗАО «СитиБайк»,55.787,37.64036,0.0
22bd43e7be6a5ca17019f7ddf7fb4333,"пр-т Мира, д.122",Moscow,RU,ЗАО «СитиБайк»,55.81359,37.63841,0.0
d65c1c15c43d1fac0c739c9036811624,"Турчанинов пер., д.3, стр. 1 (ст. м. Парк Культуры)",Moscow,RU,ЗАО «СитиБайк»,55.736359,37.595854,0.0
b6359bad931a31868d1a6070fd6839c5,"Смоленская пл., д.6, стр.1 (рядом со ст. м. Смоленская)",Moscow,RU,ЗАО «СитиБайк»,55.748114,37.582947,0.0
c3a892575999b843ae3f3e91b1a9a569,"ул. Крымский Вал, д.3 (ст. м. Октябрьская)",Moscow,RU,ЗАО «СитиБайк»,55.7301022,37.6102521,0.0
c5015c815530c5c03c1a89a1cec84f9c,"7-й Ростовский пер., д.11",Moscow,RU,ЗАО «СитиБайк»,55.7403289,37.5728133,0.0
4f4ea9774c22fafee4d785832a1a4541,"Якиманская наб., д.2",Moscow,RU,ЗАО «СитиБайк»,55.7390438,37.610879,0.0
4b55c40c41c2735269adbbb3ee1f2000,"Бескудниковский б-р, д.29, к.1",Moscow,RU,ЗАО «СитиБайк»,55.8712028,37.5548583,0.0
3df0ff236846a930bc34d773b7122407,"ул. Маршала Захарова, д.8, к.1",Moscow,RU,ЗАО «СитиБайк»,55.622981,37.7022624,0.0
0e5795bb2d7d1c22a60588f1504abe8a,"ул. Сущёвская, д.21, стр.10",Moscow,RU,ЗАО «СитиБайк»,55.78241,37.60152,1.0
35be02d60b5fec2b4f5f7b1cf6ba54a4,"Нахимовский пр-т, д.10",Moscow,RU,ЗАО «СитиБайк»,55.66734,37.59469,0.0
eb50c3cc6be367c09717572d6e2f7491,"ул. Гарибальди, д.20/29, к.2",Moscow,RU,ЗАО «СитиБайк»,55.6734,37.54503,0.0
c5e795b1e7aa4f8628d765d34a100ff2,"ул. Правды, д.24, стр.4",Moscow,RU,ЗАО «СитиБайк»,55.78876254,37.5824392,0.0
b1eb47d1a4a099b4e7477b694d3373ca,"ул. Бакунинская, д.73, стр.1",Moscow,RU,ЗАО «СитиБайк»,55.77983,37.69265,0.0
71c010dafb5e9ae1b74db257bdd9b940,"ул. Космонавтов, д.19",Moscow,RU,ЗАО «СитиБайк»,55.82139,37.66289,0.0
ed8620c00d42aa91246f0924ae1099d4,"ул. Краснобогатырская, д.62",Moscow,RU,ЗАО «СитиБайк»,55.80549,37.7067,0.0
e5919e627ad9f0f7aafcdfefe0381e5b,"ул. Авиаконструктора Микояна, д.10",Moscow,RU,ЗАО «СитиБайк»,55.7918581,37.5272596,0.0
587c5a0e02f7689fc4269c84a17b6921,"ул. Усачева, д.26 (Усачёвский рынок)",Moscow,RU,ЗАО «СитиБайк»,55.727227,37.567605,0.0
162c1d24e50bf340b6010b8e28f8654c,"Кудринская пл., д.46/54, стр.1",Moscow,RU,ЗАО «СитиБайк»,55.75849,37.584875,0.0
8c007baaeb5ba6e51b0a8c140a0a458a,"2-й Лесной пер., д.11, стр.2",Moscow,RU,ЗАО «СитиБайк»,55.780759,37.5877702,0.0
9f9ef00bdebc75571016cedd0fae0f4d,"Бескудниковский б-р, д.35, стр.1",Moscow,RU,ЗАО «СитиБайк»,55.8736631,37.5504943,0.0
91bbebb61fd4df06a546c8e2ffae65e9,"ул. Шаболовка, д.43, стр.5",Moscow,RU,ЗАО «СитиБайк»,55.71573,37.60758,0.0
e9c348e06ca69c79a8544d25b17cb822,"Кутузовский пр-т, д.35/30",Moscow,RU,ЗАО «СитиБайк»,55.7391344,37.5370538,0.0
1a5a8a61dd4ff797f3b30aac17480ccb,"ул. Новопесчаная, д.10, стр.1",Moscow,RU,ЗАО «СитиБайк»,55.7991006,37.5145568,0.0
303edc505c64d58ff24252b71f11355e,"ул. Часовая, д.24, стр.3",Moscow,RU,ЗАО «СитиБайк»,55.8112525,37.5252605,0.0
62b63c5009b94845f54d61628bf6446e,"ул. Кибальчича, д.9",Moscow,RU,ЗАО «СитиБайк»,55.81665,37.6468,0.0
b68655181e3b8ca1f8123ce6a8dabf21,"пр-т Мира, д.150",Moscow,RU,ЗАО «СитиБайк»,55.82257,37.64387,0.0
03a6cf9a2113dc9d31ceab64f8a45d81,"ул. Садовая-Кудринская, д.32, стр.2",Moscow,RU,ЗАО «СитиБайк»,55.765695,37.5907248,0.0
22f51dde023043981b26cbe9233d39fc,"ул. Садовая-Триумфальная, д.22/31",Moscow,RU,ЗАО «СитиБайк»,55.77198,37.60339,0.0
432e01ccda4f566f074a0859c30549bd,"Кутузовский пр-т, д.37 (ст. м. Кутузовская)",Moscow,RU,ЗАО «СитиБайк»,55.7391738,37.5325169,0.0
658c65454952d320d494f4b1bfdc916d,"Пречистенская наб., д.15, стр.2",Moscow,RU,ЗАО «СитиБайк»,55.738605,37.605304,0.0
28b2ccd4f0f6a4b44130755ea98714b7,ст. м. Семёновская,Moscow,RU,ЗАО «СитиБайк»,55.7829536,37.7188593,0.0
80b83d877e7b48ffa96253498e6b61a5,"ул. Тверская, д.31/4, стр.2 (ст. м. Маяковская, выход на Тверскую ул.)",Moscow,RU,ЗАО «СитиБайк»,55.769393,37.596613,0.0
ef9eb3ea1719b0ee428ce3094be6cd51,"3-й Крутицкий пер., д.13, стр.2 (ст. м. Пролетарская)",Moscow,RU,ЗАО «СитиБайк»,55.7311383,37.664271,0.0
e50f891a17df857b3b5eae2b53906f97,ст. м. Орехово (выход №3),Moscow,RU,ЗАО «СитиБайк»,55.6141672,37.6946714,0.0
b9e3ea4c8cfa074b4ecaa7e15234407b,"Шмитовский пр., д.9/5",Moscow,RU,ЗАО «СитиБайк»,55.75851,37.55293,0.0
6f0504ea560d65599c3adf7d18bbe10f,"Ленинградский пр-т, д.49/2 (ст. м. Аэропорт)",Moscow,RU,ЗАО «СитиБайк»,55.80055,37.53027,0.0
83b7835b77a755a962269401df9e1af3,"Ленинский пр-т, д. 4 (у главного входа в МИСИС)",Moscow,RU,ЗАО «СитиБайк»,55.728329,37.610612,0.0
4981690ff21eb6ce7194c73eb31c383d,"Нововаганьковский пер., д.9",Moscow,RU,ЗАО «СитиБайк»,55.7590698,37.5659411,0.0
ca6bd9bf69622dfb038a9fae8b88b0fd,Батайский пр. (напротив д.33),Moscow,RU,ЗАО «СитиБайк»,55.64333,37.72517,0.0
594e5d9ab12e99caf7c7ac8355167a36,ст. м. Алма-Атинская (выход №2),Moscow,RU,ЗАО «СитиБайк»,55.6319,37.76707,0.0
e84ae23faf31798feb3555f5261e3681,"2-й квартал Капотни, д.18",Moscow,RU,ЗАО «СитиБайк»,55.63972,37.79355,0.0
ee6a25f97550c066802a387059ce0de4,"Дмитровское ш., д.63, к.1",Moscow,RU,ЗАО «СитиБайк»,55.84727,37.56728,0.0
fd8c790ab84b6ea214385b4e91bdd48e,"Бескудниковский б-р., д.13",Moscow,RU,ЗАО «СитиБайк»,55.86409,37.56033,0.0
ab6d5db371a8f7e9908ef148f90c4307,"Бескудниковский б-р, д.57, к.1",Moscow,RU,ЗАО «СитиБайк»,55.87313,37.53887,0.0
4464525fce8c8759d41ad55029e3658a,"Дмитровское ш., д.25",Moscow,RU,ЗАО «СитиБайк»,55.82531,37.57239,0.0
83fbc2e1bf0a18a9cd0b468c1c0bd6b6,"ул. Ангарская, д.17",Moscow,RU,ЗАО «СитиБайк»,55.87567,37.5163,0.0
3570e29ae327b56951618d699fca94dd,"ул. Борисовские Пруды (напротив д.19, к.1)",Moscow,RU,ЗАО «СитиБайк»,55.63532,37.72217,0.0
676de72d78e4f002152e2d2c7acb3397,"ул. Перерва, д.40",Moscow,RU,ЗАО «СитиБайк»,55.6538,37.73611,0.0
d861c29d7c56f0267f8c529aa39ddece,"ул. Перерва, д.56, к.2 (ст. м. Братиславская, выход №3)",Moscow,RU,ЗАО «СитиБайк»,55.65867,37.74905,0.0
f957b168502c7ed73f42a099af4a2fb3,"ул. Братиславская, д.20",Moscow,RU,ЗАО «СитиБайк»,55.65631,37.76145,0.0
3d9b9a02fda5d786654732fbc23d90e0,"ул. Самокатная, д.4, стр.8",Moscow,RU,ЗАО «СитиБайк»,55.75699,37.67832,0.0
a48a9cb63df729966962cfb2c14562e0,"ул. Елецкая, вл.1А (перекрёсток Орехового б-ра и Елецкой ул.)",Moscow,RU,ЗАО «СитиБайк»,55.61283,37.73058,0.0
ac29a89fb0abe8ddf8f60311311722cc,"Котельническая наб., (напротив д.33)",Moscow,RU,ЗАО «СитиБайк»,55.7409,37.64619,0.0
a6d37128e7a19bc0170f4f2efc4f9ecd,"ул. Зорге, д.21, стр.3 (МЦК Зорге)",Moscow,RU,ЗАО «СитиБайк»,55.78931,37.50749,0.0
56015586aa890c378f5ab245f3325c35,МЦК Дубровка (выход №2),Moscow,RU,ЗАО «СитиБайк»,55.71313,37.67619,1.0
2773ac5721a510fc332bb0479531959b,"ул. Коломенская, д.21",Moscow,RU,ЗАО «СитиБайк»,55.67803,37.69418,1.0
ac809a38a6b62e5dc7c31684ff79d6ae,"ул. Бутырская, д.5 (ст. м. Савёловская, выход №7)",Moscow,RU,ЗАО «СитиБайк»,55.79342,37.58425,0.0
cc91120968347a5fbe7ea27a06cc1b63,"ул. Тимирязевская, д.10/12",Moscow,RU,ЗАО «СитиБайк»,55.81166,37.56821,0.0
c393c562d5a67ed4c730544aed1e6a7e,"ул. Новосущёвская, д.22, стр.2",Moscow,RU,ЗАО «СитиБайк»,55.78785,37.60404,0.0
698a4c57aee71ac3679db1675d766e7d,"ул. Бутырская, д.97 (ст. м. Дмитровская, выход №2)",Moscow,RU,ЗАО «СитиБайк»,55.807813,37.579917,0.0
a6711962c269f500ebca916172aff814,"ул. Николоямская, д.33, стр.1",Moscow,RU,ЗАО «СитиБайк»,55.74729,37.65773,0.0
f731e5d6eda4be8178a5e331044ffe81,"Батайский пр., д.65",Moscow,RU,ЗАО «СитиБайк»,55.6434,37.74381,0.0
00933c4029c571132ae6ca9e632c2b6d,"ул. Тестовская, д.18 (ст. м. Международная)",Moscow,RU,ЗАО «СитиБайк»,55.74846,37.5334,0.0
bffcaa81ef76fb336bf010897dbc696f,"ул. Вятская, д.27, стр.15",Moscow,RU,ЗАО «СитиБайк»,55.79685,37.58131,0.0
8ef478d1dc0f9b44d8efaa49ac97e99c,"Московский, ул. Радужная, д.1",Moscow,RU,ЗАО «СитиБайк»,55.59385,37.36941,0.0
c14a18593486ac061cc7d33f7d1ec470,"ул. Годовикова, д.9, стр.14",Moscow,RU,ЗАО «СитиБайк»,55.80808,37.63073,0.0
3966a8d0fd5bcd721472c568aad1c616,"ш. Энтузиастов, д.15/16 (ст. м. Авиамоторная, выход к ул. Красноказарменная)",Moscow,RU,ЗАО «СитиБайк»,55.75161,37.71587,0.0
1c3d988f25262a81cba404c901a09c0b,ст. м. Каширская (северный вестибюль),Moscow,RU,ЗАО «СитиБайк»,55.65585,37.65011,0.0
df4b9a18ccaf334230bfcf6edcaf9f0a,"ул. Смоленская, д.8",Moscow,RU,ЗАО «СитиБайк»,55.74603,37.57995,0.0
bd773094da5318cc35b2fce977285ecb,"Дмитровское ш., д.43, к.1 (ст. м. Петровско-Разумовская, выход №5)",Moscow,RU,ЗАО «СитиБайк»,55.83351,37.57197,0.0
57d5baf0689095492c23d367d389b9dc,"ул. Веерная, д.30, к.1",Moscow,RU,ЗАО «СитиБайк»,55.70916,37.47951,0.0
51eba74ee5fa1cfe6139bf61544a9189,"ул. Озёрная, д.31, к.3 (ст. м. Озёрная, выход №4)",Moscow,RU,ЗАО «СитиБайк»,55.67135,37.45159,0.0
89945141675b0b88ac61aa3560940dc8,"ул. 800-летия Москвы, д.22, к.2",Moscow,RU,ЗАО «СитиБайк»,55.87977,37.5575,0.0
d3facbd9f8c73d4f3b950672301e2131,"ул. Народного Ополчения, д.47, к.1, стр.1",Moscow,RU,ЗАО «СитиБайк»,55.79358,37.49285,0.0
f4c0e31b4b24147f46945a0336a846f0,"Мичуринский пр-т, Олимпийская Деревня, д.4, к.2",Moscow,RU,ЗАО «СитиБайк»,55.6744,37.46851,0.0
1a170cc801c21e26bdc289ac41fd1c28,"пр-т Вернадского, д.78, стр.4",Moscow,RU,ЗАО «СитиБайк»,55.67008,37.47848,0.0
3cfe4512e575eefaf7cb22294f9c6fd7,"ул. Академика Анохина, д.12, к.2",Moscow,RU,ЗАО «СитиБайк»,55.66533,37.46636,0.0
29006f8964074e26e3433b3e3fca5e15,"пр-т Маршала Жукова, д.28",Moscow,RU,ЗАО «СитиБайк»,55.77585,37.47528,0.0
827e6806a9b4693f69c5e7fe117547a1,"пр-т Маршала Жукова, д.70, к.1 (перекрёсток с ул. Живописной)",Moscow,RU,ЗАО «СитиБайк»,55.77961,37.45492,0.0
ac08d651284e59292cbfec59d83e3179,"ул. Генерала Глаголева, д.21",Moscow,RU,ЗАО «СитиБайк»,55.78494,37.46338,0.0
9ac245e484756125cdfbd2edb534ff93,"Перервинский б-р, д.21, к.1",Moscow,RU,ЗАО «СитиБайк»,55.65671,37.77215,0.0
611bed7a54c2cf126263e04f9ddaa311,"ул. Золоторожский Вал, д.11, стр.1",Moscow,RU,ЗАО «СитиБайк»,55.74883,37.6827,0.0
0d8dea3361d25750bd312c767b234b02,"ул. Сергия Радонежского, д.2",Moscow,RU,ЗАО «СитиБайк»,55.7465,37.67151,0.0
b08bfad8ad6510e2cfec9cb0b7873271,ст. м. Площадь Ильича (выход №3),Moscow,RU,ЗАО «СитиБайк»,55.74661,37.67847,0.0
92c8d90bd56d924d70c54c093b47ba17,ст. м. Новоясеневская (выход №3),Moscow,RU,ЗАО «СитиБайк»,55.60199,37.55264,0.0
3b632f915b5badcb747d13c2a5f61b80,ст. м. Баррикадная,Moscow,RU,ЗАО «СитиБайк»,55.76022,37.5814,0.0
a20d0ac9c38e5e2c7e3ed3a060b982d9,"ул. Софьи Ковалевской, д.16",Moscow,RU,ЗАО «СитиБайк»,55.88628,37.53481,0.0
73faf0571168aa5b42363184f4cd4382,"ул. Большая Очаковская, д.7",Moscow,RU,ЗАО «СитиБайк»,55.68626,37.4617,0.0
4f80e493b9dd50a9feb84753819eafb5,ст. м. Селигерская (выход №3),Moscow,RU,ЗАО «СитиБайк»,55.8657,37.54805,1.0
5eea0db57813e1649104e713e37506a4,"Алтуфьевское ш., д.56",Moscow,RU,ЗАО «СитиБайк»,55.88003,37.58773,0.0
0966e1e241f0af5364b8d9abf23fada8,"ул. Народного Ополчения, д.28, к.1",Moscow,RU,ЗАО «СитиБайк»,55.78257,37.48143,0.0
f90ac12c74d0c4f3cdd7c0fa58437b81,"ул. Нежинская, д.25",Moscow,RU,ЗАО «СитиБайк»,55.70891,37.46233,0.0
a047de47e432783da7bf5d533971b16a,"ул. Матвеевская, д.9",Moscow,RU,ЗАО «СитиБайк»,55.7034,37.45839,0.0
3adefbcfa00b3c2bc0db4c42bbe19027,"ул. Живописная, д.12, к.1",Moscow,RU,ЗАО «СитиБайк»,55.78401,37.45657,0.0
6a2c967a2a9d29d0e3728f7671e5167b,"3-я Хорошевская ул., д.24, стр.1",Moscow,RU,ЗАО «СитиБайк»,55.78874,37.50148,0.0
e39d1b480a5fd9233ba1aaaf047c7a67,"Каширское ш., д.57, к.1",Moscow,RU,ЗАО «СитиБайк»,55.63717,37.69524,0.0
c03fcc8e08d202d02630fe8afeea9b15,ст. м. Борисово (выход №1),Moscow,RU,ЗАО «СитиБайк»,55.63211,37.74343,0.0
0d6e66bd16bd08500eb7f218f5a18a18,"Малая Дмитровка, 15",Moscow,RU,ЗАО «СитиБайк»,55.76949,37.60565,0.0
d64e31e358be21b71e9aa1f59ace5b7b,"ул. Автозаводская, д. 17",Moscow,RU,ЗАО «СитиБайк»,55.70512,37.65401,0.0
448eee0a800b03f172ba934e63432fd2,"ул. Марксистская, д.22, стр.1",Moscow,RU,ЗАО «СитиБайк»,55.73764,37.66183,0.0
e09a61e04c73aa9d0161ceccb3e1a55f,"ул. Новинки, д.31",Moscow,RU,ЗАО «СитиБайк»,55.67616,37.67802,0.0
23aa9d6dabab5cbed903655d084096dd,"ул. Тимирязевская, д.38/25",Moscow,RU,ЗАО «СитиБайк»,55.82326,37.55876,0.0
7011af3a4b70b9967a3a957e9c8f8b5f,"ул. Донецкая, д.10",Moscow,RU,ЗАО «СитиБайк»,55.6508,37.71649,0.0
191857e7a202bcf34ec747b8eb3deb05,"Новочеркасский б-р, д.7",Moscow,RU,ЗАО «СитиБайк»,55.6471,37.72204,0.0
612bcf1594384f68611d8a9b1ce9bd1d,"ул. Маршала Голованова, д.11",Moscow,RU,ЗАО «СитиБайк»,55.64718,37.72961,0.0
4736d37e71536b6e835b51b983f22cf7,"наб. Тараса Шевченко, д.2/1",Moscow,RU,ЗАО «СитиБайк»,55.75276,37.56601,0.0
4e8d9ed5187055b6f36af1c7baee30d7,ст. м. Косино (выход №7),Moscow,RU,ЗАО «СитиБайк»,55.70349,37.85112,0.0
786eb39bc8ad9321c88ae3f1074a2fc0,"ул. Дмитриевского, д.23 (ст. м. Лухмановская, выход №3)",Moscow,RU,ЗАО «СитиБайк»,55.70968,37.89681,0.0
84014b0f9296a8683d00e3d7bebee6d4,ст. м. Некрасовка (выход №6),Moscow,RU,ЗАО «СитиБайк»,55.70344,37.92649,0.0
db66b784794ba79fcfc6b49d7e34333c,ст. м. Филатов Луг (выход №2),Moscow,RU,ЗАО «СитиБайк»,55.59982,37.40388,0.0
56a8d14efc16c7aff377b8cc2f7feb6c,ст. м. Верхние Лихоборы (вход №1),Moscow,RU,ЗАО «СитиБайк»,55.85763,37.55928,0.0
fdbbac94f5eaa3ff44c6d6c069d5a5a2,"2-я Миусская ул., д.20, стр.3",Moscow,RU,ЗАО «СитиБайк»,55.77937,37.59272,0.0
cbb08b25c0be0122d27215ff85feb4ac,"ул. Народного Ополчения, д.46, к.1",Moscow,RU,ЗАО «СитиБайк»,55.79296,37.4931,0.0
05cd6493525e24814c208ecc045523c1,"пр-т Андропова, д.27 (ст. м. Коломенская, выход №2)",Moscow,RU,ЗАО «СитиБайк»,55.6769,37.66486,0.0
55a91330120457586c009a8dd1f1e3c5,"Каширское ш., д.33, к.17",Moscow,RU,ЗАО «СитиБайк»,55.64735,37.66798,0.0
4b02c9f1046deb61e03f328237afcfc6,"ул. Костромская, д.17 (ст. м. Бибирево, выход №2)",Moscow,RU,ЗАО «СитиБайк»,55.8846,37.60077,1.0
f7cef3be1e4f77597d3b01605d1f2660,"Гостиничный пр., д.8",Moscow,RU,ЗАО «СитиБайк»,55.84592,37.57578,0.0
e1c3f15823e639c837acfee8f944f37f,"ул. Нежинская, д.13",Moscow,RU,ЗАО «СитиБайк»,55.70852,37.46964,0.0
effe1b5d67aa5656aba7286997686497,"ул. Ангарская, д.69",Moscow,RU,ЗАО «СитиБайк»,55.88651,37.52396,0.0
e3256159c2cd8029d664811dc6a1ee56,"ул. Нагатинская, д.11, к.1",Moscow,RU,ЗАО «СитиБайк»,55.67987,37.63913,0.0
79ce3f1eee3eb398eac1b15f6c5aa474,"ул. Донецкая, д.35",Moscow,RU,ЗАО «СитиБайк»,55.64404,37.70712,0.0
2dd61f34e895a63aa9d50e1cb8dc39f8,"ул. Люблинская, д.112а, стр.3 (ст. м. Марьино)",Moscow,RU,ЗАО «СитиБайк»,55.64928,37.74365,0.0
b5a579d93f2db30ee071978659108aee,"ул. Судостроительная, д.14/16",Moscow,RU,ЗАО «СитиБайк»,55.68116,37.67557,0.0
4d8d701cb6185a22346d790096816795,МЦК Верхние Котлы,Moscow,RU,ЗАО «СитиБайк»,55.68961,37.61932,0.0
c4a4147bb41f3c6dad9e59603e3220d6,"ул. Таманская, остановка Водная станция Труд",Moscow,RU,ЗАО «СитиБайк»,55.77971,37.44567,0.0
9790f606c2f5e7e988ff46ecb8e0198d,"Котельническая наб., д.1/15, стр.10",Moscow,RU,ЗАО «СитиБайк»,55.74625,37.64112,0.0
8d13e15de8a4dde9683ec40c6e201fed,"Гончарная наб., д.3, стр.3",Moscow,RU,ЗАО «СитиБайк»,55.737643,37.647831,0.0
7fd32246dc95a6fedc1382e8a70fa6e5,ст. м. Минская (выход №1),Moscow,RU,ЗАО «СитиБайк»,55.7236,37.49824,0.0
3b05adfd1cf5b0455ac4c12d75ba45f6,"ул. Мусы Джалиля (напротив д.5, к.4)",Moscow,RU,ЗАО «СитиБайк»,55.63053,37.74715,0.0
13530922c8b56b85b2063b7fa53d0c8f,"Коровинское ш., д. 20 к.1",Moscow,RU,ЗАО «СитиБайк»,55.87869,37.52275,0.0
b50f514a3c650e75ac808395a6167c36,ст. м. Ясенево (выход №3),Moscow,RU,ЗАО «СитиБайк»,55.60542,37.53518,0.0
1df96d4638e419c21d5f3694f2ea9ffe,ст. м. Новокосино (выход №3),Moscow,RU,ЗАО «СитиБайк»,55.74409,37.86258,0.0
b9b90f04e6f123b90f2aedf6f277c60e,ст. м. Улица Дмитриевского (выход №3),Moscow,RU,ЗАО «СитиБайк»,55.71085,37.87958,0.0
0fa68d655f04f83369063c420a18f3ac,"ул. 8 Марта, д.17 (МЦД Гражданская)",Moscow,RU,ЗАО «СитиБайк»,55.80591,37.54917,0.0
0420a9eed55c9d40b5d38ca9758bae73,"ул. Зои и Александра Космодемьянских, д.9 (ст. м. Войковская, выход №6)",Moscow,RU,ЗАО «СитиБайк»,55.818,37.49941,0.0
cb65ad9a44df215f297f21ece162f9c5,"ул. Большая Академическая, д.71",Moscow,RU,ЗАО «СитиБайк»,55.84072,37.5494,0.0
9a1c5ce5d495ef6393f52607a0d6a0cb,"ул. Онежская, д.9/4, к.А",Moscow,RU,ЗАО «СитиБайк»,55.84866,37.52054,0.0
dceb8235325ff39afbbcec17a890d7b8,ст. м. Беломорская (выход №1),Moscow,RU,ЗАО «СитиБайк»,55.86467,37.47375,0.0
9f34218f6b3f0152f581f46a3be78c01,"ул. Фестивальная, д.69",Moscow,RU,ЗАО «СитиБайк»,55.8621,37.50401,0.0
90b262b4e11123c712fbbed6756b4f90,ст. м. Беговая (выход №2),Moscow,RU,ЗАО «СитиБайк»,55.774,37.54483,0.0
d4d357a10b854e5d3f38f96f13e2176b,"ул. Щукинская, д.2",Moscow,RU,ЗАО «СитиБайк»,55.81051,37.48275,0.0
a9ffe21dc99117cea90337e56a651b87,"Петровско-Разумовский пр., д.23, стр.2",Moscow,RU,ЗАО «СитиБайк»,55.80128,37.56467,0.0
042f983dd5d2af5d7d912afb6942ba31,"ул. Народного Ополчения, д.2, к.8 (МЦК Панфиловская, выход №1)",Moscow,RU,ЗАО «СитиБайк»,55.79725,37.49858,0.0
4d78af24d710cc4dcf376cb69a9ce590,"ул. Широкая, д.21",Moscow,RU,ЗАО «СитиБайк»,55.88754,37.67215,0.0
204794950a1b048624aace2d7c5cc6af,ст. м. Медведково (выход №1),Moscow,RU,ЗАО «СитиБайк»,55.88779,37.66159,0.0
3b72c2505d3d58e92e75d9082530e54b,"ул. Большая Новодмитровская, д.36, стр.9",Moscow,RU,ЗАО «СитиБайк»,55.80532,37.58433,0.0
71da2512f9d9686ce429b35a90d68053,ст. м. Савёловская (выход №2),Moscow,RU,ЗАО «СитиБайк»,55.7937,37.58911,0.0
44b762c91c631268e24e946c01353968,"ул. Башиловская, д.21",Moscow,RU,ЗАО «СитиБайк»,55.80087,37.57535,0.0
99efda58d087b937350ae1238c9a995b,МЦК Балтийская (выход №1),Moscow,RU,ЗАО «СитиБайк»,55.82558,37.49378,0.0
a32955196599a9568aea4d28036dae06,"Кронштадский б-р, д.47",Moscow,RU,ЗАО «СитиБайк»,55.85138,37.51113,0.0
f191ece4044e4727290795a54bffca49,"ул. Смольная, д.2",Moscow,RU,ЗАО «СитиБайк»,55.84422,37.50115,0.0
3a637c791935ff13e8857f514bc74e5f,ст. м. Водный Стадион (выход №1),Moscow,RU,ЗАО «СитиБайк»,55.84052,37.48628,0.0
39e3cd6d12d4a800eda76b7a5795f417,"ул. Менжинского, д.36 (ст. м. Бабушкинская, выход №2)",Moscow,RU,ЗАО «СитиБайк»,55.87007,37.66412,0.0
0a90c3ebab8949bc02186d5be0b35a7a,"ул. Широкая, д.1, к.1",Moscow,RU,ЗАО «СитиБайк»,55.88808,37.64815,0.0
35456fd2cb9ea20778caff7eac56503c,"ул. Коломенская, д.3",Moscow,RU,ЗАО «СитиБайк»,55.68466,37.70651,1.0
0934cbb336faf652736c3a7e422abc94,Нагатинская наб. (напротив д.40),Moscow,RU,ЗАО «СитиБайк»,55.68638,37.67252,0.0
416495c6be3990f8cea133e8b8d82b8d,"Новоданиловская наб., д.10",Moscow,RU,ЗАО «СитиБайк»,55.69697,37.62603,0.0
32ed4d56b08959554c84f34f2fd79be4,"пр-т Андропова, д.1 (ст. м. Технопарк, выход №8)",Moscow,RU,ЗАО «СитиБайк»,55.69425,37.667,0.0
ca2f06d97b6df88bb41ec99b71e773a2,"2-й Южнопортовый пр-д, д.12А, к.1, стр.1",Moscow,RU,ЗАО «СитиБайк»,55.70136,37.68803,0.0
66a72608487716fb1977741f6580fd84,ст. м. Кожуховская,Moscow,RU,ЗАО «СитиБайк»,55.70632,37.68568,0.0
e407199fd703f164ff2af217e54c928a,"Б-р Дмитрия Донского, д.10",Moscow,RU,ЗАО «СитиБайк»,55.56656,37.57532,0.0
0568cf790d133e59b8661313f7f893e5,"ул. Изюмская, д.47",Moscow,RU,ЗАО «СитиБайк»,55.54714,37.5657,0.0
f316eea420a8106be615295538d6affb,ст. м. Бульвар Адмирала Ушакова,Moscow,RU,ЗАО «СитиБайк»,55.54498,37.54114,0.0
efaf0c113411a4af2d6b9fde2b6f0c8f,"ул. Южнобутовская, д.50, стр.1",Moscow,RU,ЗАО «СитиБайк»,55.53796,37.53336,0.0
2f85a28080ed5d2a88792d939b4ae162,"пр-д Дежнёва, д.20",Moscow,RU,ЗАО «СитиБайк»,55.87102,37.63701,0.0
8c0a5e08d53b85da86e643141d9b8c03,"ул. Полярная, д.20",Moscow,RU,ЗАО «СитиБайк»,55.879,37.63713,0.0
b8b861d9148e7b6c144f276d88e5a5a5,"Староватутинский пр-д, д.14",Moscow,RU,ЗАО «СитиБайк»,55.87508,37.66673,0.0
315de9993144d6e8d42bf4c63fe7af72,"Рязанский пр-т, д.12",Moscow,RU,ЗАО «СитиБайк»,55.7254,37.76128,0.0
0294e4d0389f32c4ccd58712b6a278f7,ст. м. Ботанический сад (выход №4),Moscow,RU,ЗАО «СитиБайк»,55.843473,37.637625,0.0
b70dc896ec7f5162baff498c585249d8,"ул. Таллинская, д.26",Moscow,RU,ЗАО «СитиБайк»,55.80012,37.40715,0.0
492f2cb48f68d45803ed99161fb0dde5,"ул. Твардовского, д.3, к.1",Moscow,RU,ЗАО «СитиБайк»,55.79651,37.39323,0.0
883a73015959db5f3074e4038811bd73,"ул. Гончарова, 4",Moscow,RU,ЗАО «СитиБайк»,55.81483,37.58558,0.0
8be746efae5063cf0cf83a86ab96d66e,"Ленинградский пр-т, д.36, стр.38",Moscow,RU,ЗАО «СитиБайк»,55.78929,37.56667,0.0
d8e477872a6f3de406e80fc1fafac536,"Строгинский б-р, д.14, к.3 (ст. м. Строгино, выход №2)",Moscow,RU,ЗАО «СитиБайк»,55.80397,37.40005,0.0
3ad2267a70b2bbebf1ef698760b030e5,"Багратионовский пр-д (ст. м. Фили, выходы 1-2)",Moscow,RU,ЗАО «СитиБайк»,55.74664,37.51421,1.0
5321335ca07e5be589ffe5dcad53a78f,"ул. Новозаводская, д.6",Moscow,RU,ЗАО «СитиБайк»,55.75066,37.5096,0.0
e1d16973c31cc55d7cced179c04e4875,"2-я Филёвская ул., д.14",Moscow,RU,ЗАО «СитиБайк»,55.73931,37.4906,0.0
1386df0352852ef3f62d1ea747b9e687,"ст. м. Филёвский парк (выход №1, напротив ул. Минская д.14А)",Moscow,RU,ЗАО «СитиБайк»,55.73884,37.4834,0.0
90984f9d9eab09ec4971e23cd7b6f30c,"ул. Б. Дорогомиловская, д.7/2",Moscow,RU,ЗАО «СитиБайк»,55.74622,37.55784,0.0
dfc53fcc4b7a0160785fb2276cfb336b,"ул. Барклая, д.10 (ст. м. Багратионовская)",Moscow,RU,ЗАО «СитиБайк»,55.74341,37.4984,0.0
4cfbdffa4a99e5055d9ad4249b4d6207,"ул. Малая Филёвская, д.13",Moscow,RU,ЗАО «СитиБайк»,55.73649,37.46714,0.0
4262f0891b131d4752cabf43e87b578a,"ул. Кастанаевская, д.49",Moscow,RU,ЗАО «СитиБайк»,55.73228,37.46173,0.0
cf0d4e8a16027dc190d3faccecd4a8bc,"Б. Девятинский пер., д.9 (остановка «Площадь Свободной России"")",Moscow,RU,ЗАО «СитиБайк»,55.754515,37.57638,0.0
b7e318144d1e3aaeeb10b32ba398314e,"ул. Раменки, д.16",Moscow,RU,ЗАО «СитиБайк»,55.69037,37.49043,0.0
99578caedc977bb53b59d286e52b071a,"ст. м. Мичуринский проспект, выход №2",Moscow,RU,ЗАО «СитиБайк»,55.68946,37.48332,0.0
5eea22fa7f76c92730f2d39213b7b164,"ул. Старокачаловская, д.1Б",Moscow,RU,ЗАО «СитиБайк»,55.56935,37.58502,0.0
b9f2888fe448b9b1374c8d6108f2edfa,ст. м. Улица Скобелевская (выход №1),Moscow,RU,ЗАО «СитиБайк»,55.54772,37.5537,0.0
c114cd4070f3bf2d9f9217a15647ee8e,ст. м. Улица Старокачаловская (выход №9),Moscow,RU,ЗАО «СитиБайк»,55.57024,37.57792,0.0
93bbd2b64625f441941f88755ec6447e,"Чонгарский б-р, д.7",Moscow,RU,ЗАО «СитиБайк»,55.65143,37.61299,0.0
3ad5f570ab9b3d39a3f893bb2af1223f,МЦД Тестовская (выход №2),Moscow,RU,ЗАО «СитиБайк»,55.75252,37.53238,0.0
72d04b198486fb622ede7dbda53e7db5,ст. м. Юго-Западная (выход №4),Moscow,RU,ЗАО «СитиБайк»,55.66313,37.48219,0.0
5977876ff8bd90097621d8a7a2e9afa9,"ул. Герасима Курина, д.16 (ст. м. Славянский бульвар, выход №2)",Moscow,RU,ЗАО «СитиБайк»,55.73088,37.4724,0.0
bc3b831dfcb97aa5c8ce4a64092e8c1e,"ул. Кастанаевсая, д.42А",Moscow,RU,ЗАО «СитиБайк»,55.734944,37.47549,0.0
954c1300ef6dde7382369d23ed26c644,"ул. Большая Филевская, д.18",Moscow,RU,ЗАО «СитиБайк»,55.74917,37.50094,0.0
7d3a6d1412e62f296e5ed1775b35c982,ст. м. Кунцевская (выход №2),Moscow,RU,ЗАО «СитиБайк»,55.73121,37.44744,0.0
679a048ce9a5a38da693bf27b15bf76f,"Славянский б-р, д.3",Moscow,RU,ЗАО «СитиБайк»,55.72751,37.47411,0.0
59723999376329e7ba6a083f6c40d467,ул. Киевская (напротив д.2),Moscow,RU,ЗАО «СитиБайк»,55.74268,37.56251,0.0
4126ae9e4953c7dd447f3391f1085dfa,"ул. Киевская, д.18, стр.1 (ст. м. Студенческая)",Moscow,RU,ЗАО «СитиБайк»,55.73902,37.54828,0.0
3c0dbf9aef51fa1a098b8096b1b9c045,ст. м. Стахановская (выход №2),Moscow,RU,ЗАО «СитиБайк»,55.72745,37.75342,0.0
fea2097ca51e86075261827643d1ce35,"Рязанский пр-т, д.2/2, ст. м. Нижегородская (выход №3)",Moscow,RU,ЗАО «СитиБайк»,55.73075,37.73179,0.0
f13331e4bfaa542f1708dee458f2b65a,"Рязанский пр-т, д.24, к.1",Moscow,RU,ЗАО «СитиБайк»,55.72126,37.77319,0.0
246a24a0393f2d3b278300ce6bdfe600,"Рязанский пр-т, д.2/1, к.2Г",Moscow,RU,ЗАО «СитиБайк»,55.72863,37.73601,0.0
b2c1ab0eb79172e9fb18bda9772e6d74,"ул. Михайлова, д.29, к.1",Moscow,RU,ЗАО «СитиБайк»,55.72623,37.77133,0.0
f6695451b686ad143b69ea28c03870d7,ст. м. Окская (выход №3),Moscow,RU,ЗАО «СитиБайк»,55.71925,37.78222,0.0
d82662fed98d548cbc8f592672993aba,"ул. Таллинская, д.34",Moscow,RU,ЗАО «СитиБайк»,55.80244,37.4088,0.0
d26de08e76cfd4545c359d94d38806c2,"ул. Кулакова, д.9",Moscow,RU,ЗАО «СитиБайк»,55.81115,37.39836,0.0
fb1957421131731173a7a0a361a53a54,"ул. Исаковского, д.27, к.1",Moscow,RU,ЗАО «СитиБайк»,55.80766,37.41832,0.0
d14e04a4c80754424bc18108f490f549,"ул. Профсоюзная, д.88/20",Moscow,RU,ЗАО «СитиБайк»,55.6505176,37.5323146,0.0
1df4b602af51a03dfb1afbb8508f45b6,"пр-т Вернадского, д.76А",Moscow,RU,ЗАО «СитиБайк»,55.67204,37.49052,0.0
57d949522c997f4310ee4eafebc6cfe4,"Багратионовский пр., д.5",Moscow,RU,ЗАО «СитиБайк»,55.74482,37.50917,0.0
74df4983ccffb9573c07186a761bf0bc,"ул. Менжинского, д.32  (ст. м. Бабушкинская, выход №4)",Moscow,RU,ЗАО «СитиБайк»,55.86991,37.66497,1.0
33dc873d9b5fdb3a27cd53cb47851c2c,"ул. Маломосковская, д.22, стр.1",Moscow,RU,ЗАО «СитиБайк»,55.81177,37.6531,2.0
5d5e4c697d922824eedf4ad899f5610a,"Станция метро ""Крылатское"" (выход №5)",Moscow,RU,ЗАО «СитиБайк»,55.75543,37.40886,0.0
2c53ed5b9e69fe400adc9ad0d9e56bfd,"ул. Советской Армии, д.8",Moscow,RU,ЗАО «СитиБайк»,55.787541,37.6170397,0.0
71d5b2fb1de7fbffcd914ad73cb134c9,"Берсеневская наб., д.20/2",Moscow,RU,ЗАО «СитиБайк»,55.74559,37.61144,0.0
bfc3eed44b6c495cbafc93d955876dc9,"ул. Новодмитровская, д.2, к.1",Moscow,RU,ЗАО «СитиБайк»,55.80478,37.58956,0.0
dc0939237a6382c2492918233f121d89,"Каширское ш., ост. МЦД Москворечье",Moscow,RU,ЗАО «СитиБайк»,55.63992,37.68621,0.0
373f355e79d2089e2128195688f43fab,"ул. Большая Грузинская, д.13А, стр.1",Moscow,RU,ЗАО «СитиБайк»,55.76574,37.57796,0.0
cd3f1ad366fe7a245bfe727eef4220f8,"ул. Стромынка, д.7, к.4",Moscow,RU,ЗАО «СитиБайк»,55.7919252,37.6871517,0.0
5408d8f92725d7e71ecc8c9cd7a40e68,"ул. Преображенский Вал, д.24, к.3",Moscow,RU,ЗАО «СитиБайк»,55.7907,37.71599,0.0
ee3c39778f798fc5ce0be8c19ca32359,"ул. Кировоградская, д.8, к.3",Moscow,RU,ЗАО «СитиБайк»,55.62784,37.61109,0.0
49f968ed8b93aa5eefa718a662a717dc,"ул. Чертановская, д.22",Moscow,RU,ЗАО «СитиБайк»,55.62395,37.59509,0.0
fb6846858726477e157422eead7fc8c2,"ст. м. ""Южная"" (выход №5)",Moscow,RU,ЗАО «СитиБайк»,55.62341,37.60857,0.0
8d8c58dde01757f759c0b962d1d2eab5,ст. м. Пражская (выход №2),Moscow,RU,ЗАО «СитиБайк»,55.61113,37.605,0.0
2862a0afb5401a96169d842d66e5d039,"ул. Новодмитровская, д.2, к.7",Moscow,RU,ЗАО «СитиБайк»,55.80305,37.59187,0.0
5d774c3bb15ebc0b6b032117f0772876,"Каширское ш., д.45, стр.21",Moscow,RU,ЗАО «СитиБайк»,55.64383,37.67729,0.0
3d87f4d7af9ce41cff7325cfb93be870,ст. м. Алтуфьево (выход №1),Moscow,RU,ЗАО «СитиБайк»,55.89899,37.58652,0.0
c0da8d92e32fe220b3ab66b629511012,"Лианозовский пр-д, вл.1Г, (ст. МЦД Лианозово)",Moscow,RU,ЗАО «СитиБайк»,55.89751,37.55372,0.0
d0d1c3011901b0b6c102ef634649b47c,"ул. Илимская, д.12",Moscow,RU,ЗАО «СитиБайк»,55.89,37.58545,0.0
02dcf1ef0dcb6242b1b58238dfec49ba,"ул. Снежная, д.21/1 (ст. м. Свиблово, выход №5)",Moscow,RU,ЗАО «СитиБайк»,55.85475,37.65125,0.0
5fe601f34fa66f681a01edfc63afb793,"ул. Енисейская, д.11",Moscow,RU,ЗАО «СитиБайк»,55.86494,37.66162,0.0
74e446831a3bf3291ec2a9245db3c52f,"ул. Большая Академическая, д.35,  стр.1",Moscow,RU,ЗАО «СитиБайк»,55.83166,37.53122,0.0
8951c3be971bc4ca858221c6345de496,"4-й Лучевой просек, платформа Маленковская",Moscow,RU,ЗАО «СитиБайк»,55.81387,37.66318,0.0
2c9689d57a00882ee888fdd15f81dfc7,"ул. Краснодарская, д.76",Moscow,RU,ЗАО «СитиБайк»,55.66737,37.78244,0.0
0297017c91e479daf4403c1e1cfd0530,"ул. Иловайская (напротив д.12, стр.1) ст. МЦД Перерва",Moscow,RU,ЗАО «СитиБайк»,55.66004,37.72052,0.0
63b27f7b86a250ecb3d7834032ffdf5d,"ул. Красноказарменная, д.1, стр.2",Moscow,RU,ЗАО «СитиБайк»,55.7615,37.68756,0.0
8c97ac6cf0831c99d95ce33247c01a38,"ул. Ставропольская, вл.16",Moscow,RU,ЗАО «СитиБайк»,55.68064,37.74873,0.0
1a6e4075c496d9c6ad2662952c659de9,ст. м. Волжская (выход №2),Moscow,RU,ЗАО «СитиБайк»,55.69067,37.75604,0.0
592c492a3065305b9defbc8faf7b8470,"ул. Совхозная, д.39",Moscow,RU,ЗАО «СитиБайк»,55.6739,37.76008,0.0
0f0d5661aa315e5448fa52aee5fea739,ст. м. Люблино (выход №6),Moscow,RU,ЗАО «СитиБайк»,55.67685,37.76336,0.0
836c5e5dbba460d614efbcd00ff2d050,"ул. Судакова, д.11, стр.2",Moscow,RU,ЗАО «СитиБайк»,55.67286,37.74736,0.0
b35bb807e9731df22aa293adae2346c1,"ул. Люблинская, д.61",Moscow,RU,ЗАО «СитиБайк»,55.68461,37.73776,1.0
882d019ac00be25080cfd326428ee872,"ул. Фестивальная, д.2Б (ст. м. Речной вокзал, выход №2)",Moscow,RU,ЗАО «СитиБайк»,55.85486,37.4775,0.0
bbec700d956cea72e6a197489ece973c,"ул. Инженерная, д.1",Moscow,RU,ЗАО «СитиБайк»,55.87918,37.5821,0.0
84b1cec7d12e6038d158c61e073a5ac7,"ул. Земляной Вал, д.52/16, стр.2",Moscow,RU,ЗАО «СитиБайк»,55.749,37.65552,0.0
ba4528b2780830f48c23083ca2bd49fa,"ул. Беломорская, д.16А",Moscow,RU,ЗАО «СитиБайк»,55.86294,37.47143,0.0
9235bab6646b72ba34844c96e71e9b46,"пл. Победы, д.2, к.2 (ст. м. Парк Победы, выход №1)",Moscow,RU,ЗАО «СитиБайк»,55.73667,37.5176,0.0
4f5e694135fbb2afe95bf7c112d96340,"Шелепихинская наб., д.34, к.2",Moscow,RU,ЗАО «СитиБайк»,55.7626,37.50913,0.0
9b97733a4aecd65a557fc0b95d096061,"Шелепихинское ш., д.13 (ст. м. Шелепиха, выход №4)",Moscow,RU,ЗАО «СитиБайк»,55.75833,37.52289,0.0
6aaece79425c899399292c397aeeb7ed,МЦК Шелепиха,Moscow,RU,ЗАО «СитиБайк»,55.75685,37.52493,0.0
55f66badf4658edadd5a5d6661c8450e,"пр-т Мира, д.109",Moscow,RU,ЗАО «СитиБайк»,55.81863,37.63723,0.0
f31668af6969c0f5d4b4de0cd85f80dc,"Кременчугская ул., д.11, стр. 8",Moscow,RU,ЗАО «СитиБайк»,55.7195,37.46362,0.0
7a68733f882adfbbe59834b7aa321713,"ул. Солдатская, д.15",Moscow,RU,ЗАО «СитиБайк»,55.76438,37.70556,0.0
567fd24f6f853985d3871a3daf6d3c2a,"наб. Тараса Шевченко, д.23А",Moscow,RU,ЗАО «СитиБайк»,55.74616,37.54636,0.0
4ba94a90e18361f26b95fdca3b049974,"ул. Введенского, д.32",Moscow,RU,ЗАО «СитиБайк»,55.634235,37.5308314,0.0
6c9592a0a88082163d17a1658aacb335,"ул. Ясногорская, д.17, к.1",Moscow,RU,ЗАО «СитиБайк»,55.60306,37.53318,0.0
6d6dd725b0f601e98784f6e27f3f062d,"Кутузовский пр-т, д.29",Moscow,RU,ЗАО «СитиБайк»,55.7434,37.54435,0.0
1af2c13c7871f577f4c0b2042405412a,"Рублёвское ш., д.28, к.1",Moscow,RU,ЗАО «СитиБайк»,55.7462,37.42109,0.0
fac62b4d577a28dce83b14934e1d5e50,"Рублёвское ш., д.16",Moscow,RU,ЗАО «СитиБайк»,55.7401,37.43298,0.0
9c8f7752538d2374b2816f39fce34155,"ул. Ставропольская, д.27, стр.1",Moscow,RU,ЗАО «СитиБайк»,55.68195,37.76451,0.0
cfbcc3d64daf61eee3937e7020f18fb3,"ул. Снежная, д.18",Moscow,RU,ЗАО «СитиБайк»,55.85221,37.64704,0.0
ab275d0cde19cc7980ea09276b2ad998,"Рублёвское ш., д.42",Moscow,RU,ЗАО «СитиБайк»,55.75073,37.41142,0.0
03c1a0e70d1cfc1a863bb3f690cf5fb0,"Кутузовский пр-т, д.30",Moscow,RU,ЗАО «СитиБайк»,55.74086,37.53601,0.0
a7b9a82c6c71283f3eb45cca32488b64,"ул. Алексея Свиридова, д.22, стр.1 (МЦД Кунцево)",Moscow,RU,ЗАО «СитиБайк»,55.72619,37.44703,0.0
94c069af5e2a8df7d9e76bf676053d5e,"ул. Энергетическая, д.16, к.1",Moscow,RU,ЗАО «СитиБайк»,55.75779,37.70932,0.0
9260d92678b80911b703e23ef8f9d5b9,"Севастопольский пр-т, д.28, к.4",Moscow,RU,ЗАО «СитиБайк»,55.6620326,37.5766175,0.0
1784b661b13be46d1919dfc463e16a79,"ул. Большая Татарская, д.30",Moscow,RU,ЗАО «СитиБайк»,55.73875,37.63392,0.0
b2e78248bc7177086ca4361b2d2aa258,"ул. Дмитрия Ульянова, д.24 (ст. м. Академическая)",Moscow,RU,ЗАО «СитиБайк»,55.68685,37.57295,0.0
62b680a353548038eaa3a75eaec48095,"ул. Симоновский Вал, д.2",Moscow,RU,ЗАО «СитиБайк»,55.7301414,37.6606868,0.0
2bbedcb9ea0fcc4740c4302350563b2b,"Павелецкая пл., д.2, стр.2",Moscow,RU,ЗАО «СитиБайк»,55.73079,37.63573,0.0
a603a9a7094ca83e8967f1041255585f,"пр-т Вернадского, д.14",Moscow,RU,ЗАО «СитиБайк»,55.675752,37.504052,0.0
47d1cd9f8edf2ba9f0975c436349e975,"ул. Велозаводская, д.2",Moscow,RU,ЗАО «СитиБайк»,55.7170746,37.6637295,0.0
e46da1585475521d6c149b9b1a12e9dd,"3-я Песчаная ул., д.2А, стр.2",Moscow,RU,ЗАО «СитиБайк»,55.792384,37.513551,0.0
5696ba336654759b7bb0dc050e2f5edb,"ул. Б. Каменщики, д.8",Moscow,RU,ЗАО «СитиБайк»,55.735005,37.65628,0.0
ab3edb64ee03e41329f9e60740913a22,"ул. Большая Почтовая, д.7, стр.1",Moscow,RU,ЗАО «СитиБайк»,55.775968,37.692317,0.0
dca39a99cfab51be83f1f0e690d768fc,"ул. Б. Каменщики, д.2 (ст. м. Таганская (радиальная))",Moscow,RU,ЗАО «СитиБайк»,55.7390591,37.6531291,0.0
432dd1338c491abeb58cfd015f6d1d48,"ул. Долгоруковская, д.20",Moscow,RU,ЗАО «СитиБайк»,55.77851,37.60179,1.0
d043a63202744e968e9992a1d0119e3a,"ул. Новый Арбат, д.20",Moscow,RU,ЗАО «СитиБайк»,55.75275,37.58965,0.0
83dcfaffb2c543f91c84b417ab3282bc,"ул. Велозаводская, д.11/1",Moscow,RU,ЗАО «СитиБайк»,55.7110537,37.6663363,0.0
84bfccfd040093c5a2cfbf7eff39dd7a,"ул. Дубовая Роща, д.21 (платформа Останкино)",Moscow,RU,ЗАО «СитиБайк»,55.818213,37.603052,0.0
1cf344ff14eadfaff8f83fc94d2c7499,"ул. Б. Семёновская, д.38, стр.2",Moscow,RU,ЗАО «СитиБайк»,55.78183,37.70985,0.0
53e7b09c0b69d6b9a1e376de1e51a45e,"ул. Бутырский Вал, д.32",Moscow,RU,ЗАО «СитиБайк»,55.78427,37.58714,0.0
822b11152e7438f8ea2217262aa9b05d,"ул. Симоновский Вал, д.13, к.2",Moscow,RU,ЗАО «СитиБайк»,55.7232251,37.6639974,0.0
35f4bd2912c21be0825d7e6b23c6cda7,"пр-т Мира, д.119, стр.23 (у Москвариума)",Moscow,RU,ЗАО «СитиБайк»,55.83341,37.61946,0.0
2f256934c742560535f3d56d29e0cbd4,ст. м. Отрадное (выход №2),Moscow,RU,ЗАО «СитиБайк»,55.86477,37.60605,0.0
a7e8368acf0529e733cea7683034805c,"ул. Маршала Василевского, д.15 (ст. м. Щукинская, выход №4)",Moscow,RU,ЗАО «СитиБайк»,55.80805,37.46457,0.0
ba1028d5efbb46921de58e22b550dfe0,"ул. Маршала Бирюзова, д.32",Moscow,RU,ЗАО «СитиБайк»,55.79904,37.4831,0.0
e7b616c23051885b18b77c74ab903715,"ул. Зои и Александра Космодемьянских, д.23",Moscow,RU,ЗАО «СитиБайк»,55.82379,37.51813,0.0
b9d6a39d9d30d2d46ff33e02af80a2a8,"ул. Демьяна Бедного, д.10",Moscow,RU,ЗАО «СитиБайк»,55.77347,37.48842,0.0
d16298bf77c880a43ef2b556f0c55d28,"Ленинский пр-т, д.21",Moscow,RU,ЗАО «СитиБайк»,55.71812,37.59605,0.0
7196b370ffcb9c0180dbf35b8fb069b1,"ул. Рочдельская, д.15, стр.13",Moscow,RU,ЗАО «СитиБайк»,55.75617,37.56541,0.0
2265cf16a93207120ee5fee84da388ec,"пр-т Мира, д.49",Moscow,RU,ЗАО «СитиБайк»,55.78342,37.63407,0.0
2901871c6748891f4de62fb29ab71808,"ул. Большая Садовая, д.5, стр.1",Moscow,RU,ЗАО «СитиБайк»,55.76941,37.59097,0.0
0cfe57776c12fa33da012b08d8c8893e,"ул. Михалковская, д.36, стр.1",Moscow,RU,ЗАО «СитиБайк»,55.84148,37.51926,0.0
4fcc5f63dd33e27d3a99ff397de160e4,"ул. Лобачевского, д.114",Moscow,RU,ЗАО «СитиБайк»,55.691161,37.476626,0.0
700e97fc565d92eeb2d19826db8e9f9d,"г. Троицк, Академическая пл., д.3",Moscow,RU,ЗАО «СитиБайк»,55.485372,37.305493,0.0
8cfd73f88ec371a118249b8c695ad20e,"ул. Автозаводская, д.18",Moscow,RU,ЗАО «СитиБайк»,55.70446,37.64044,0.0
3fbc6364fd834ac587dfa43a0276c41f,"г. Зеленоград, ул. Юности, д.2, стр.1",Moscow,RU,ЗАО «СитиБайк»,56.00157,37.21069,0.0
61c1471a8ae5fb772f9c08638fcb1792,"ул. Новодмитровская, д.1, стр.3",Moscow,RU,ЗАО «СитиБайк»,55.806099,37.5844,0.0
713167d15b882fcc7cd4309457dc79c6,"3-я Песчаная ул., д2А, стр.3",Moscow,RU,ЗАО «СитиБайк»,55.79151,37.519332,0.0
27a311645e16aced80871e7223521c08,"г. Троицк, ул. Солнечная, д.1",Moscow,RU,ЗАО «СитиБайк»,55.465606,37.292854,0.0
a41e878d1b2bd8fcfbc28b3816ae964a,"Мичуринский пр-т, д.3",Moscow,RU,ЗАО «СитиБайк»,55.70418,37.51181,0.0
6ab88abebf2952e549c664aa456afe13,"ул. Братиславская, д.5",Moscow,RU,ЗАО «СитиБайк»,55.66341,37.75789,0.0
f09e3dde7ce5544ae2a8fe405cea777e,"Волжский б-р, квартал 114а, к.10",Moscow,RU,ЗАО «СитиБайк»,55.70093,37.75102,0.0
d879087bc9074f4a71cd217da76f64dc,"ул. Михалковская, д.4",Moscow,RU,ЗАО «СитиБайк»,55.8368,37.53829,0.0
8163c661def98efab84b3ef95052babe,"ул. Авиационная, д.79, стр.1",Moscow,RU,ЗАО «СитиБайк»,55.809353,37.449601,0.0
99521a4911c35cc63883fcf231b7b961,"Комсомольский пр-т, д.34",Moscow,RU,ЗАО «СитиБайк»,55.72448,37.57763,0.0
eff72ed54552db7ea342ae7bd4a220f3,"ул. Нижегородская, д.16",Moscow,RU,ЗАО «СитиБайк»,55.73771,37.68374,0.0
f5b35f8e983fba96a49decc77a26c009,"ул. Коштоянца, д.33",Moscow,RU,ЗАО «СитиБайк»,55.676864,37.488404,0.0
ba03ee7d1f18e7b7eb672b175034d5f7,"ул. Каховка, д.28, стр.2",Moscow,RU,ЗАО «СитиБайк»,55.659906,37.562847,0.0
85d98f32547482d8918ef2dc7d022963,"г. Троицк, Октябрьский пр-т, д.16Б",Moscow,RU,ЗАО «СитиБайк»,55.477179,37.298584,0.0
f41525db94f3ee386993f75bbb8b5da3,"Зубовский б-р, д.4, стр.1",Moscow,RU,ЗАО «СитиБайк»,55.73741,37.58997,0.0
7ae46d3661d6e0cb446210fcde919736,"2-й Сыромятнический пер., д.1",Moscow,RU,ЗАО «СитиБайк»,55.7538,37.66281,0.0
005451d6a837e34c64fea3854026676c,"ул. Люсиновская, д.60",Moscow,RU,ЗАО «СитиБайк»,55.71832,37.62213,0.0
592c36c4cc98d1645b5fa133b10dfb31,"г. Зеленоград, пл. Шокина, д.1",Moscow,RU,ЗАО «СитиБайк»,55.98351,37.21059,0.0
810726cec826e5b2a80582279d16f99d,cт. м. Кузьминки (выход №5),Moscow,RU,ЗАО «СитиБайк»,55.70504,37.76419,2.0
6e771c3e276119592ce69a1c10ef1963,"ул. Краснодонская, д.2А",Moscow,RU,ЗАО «СитиБайк»,55.6842,37.74989,0.0
c1b8990b1d7989ba0d3337e8e1bf5a06,"пр-д Дежнёва, д.2А",Moscow,RU,ЗАО «СитиБайк»,55.87186,37.65103,0.0
e8719438bedb7dc6141879c44535bc89,"ул. Лескова, д.14",Moscow,RU,ЗАО «СитиБайк»,55.89765,37.60484,0.0
c89dfade662defeff03e4e0a47b828b7,"Сыромятнический пр-д, д.1/4",Moscow,RU,ЗАО «СитиБайк»,55.75344,37.66655,0.0
c221a53bec25e3f86b91c10b2f32e93f,Площадь Курского вокзала,Moscow,RU,ЗАО «СитиБайк»,55.75626,37.66024,0.0
516fe5729926ba2107bbb4805e5dad79,"пр. Невельского, д.6, к.2",Moscow,RU,ЗАО «СитиБайк»,55.7524,37.69962,0.0
60431dd18acca4d07f5ae84caf321b5f,"Шоссе Энтузиастов, д.1, к.2",Moscow,RU,ЗАО «СитиБайк»,55.74756,37.68867,0.0
c85840e4c2174d63ba1c77dbc6c998b3,"ул. Азовская, д.24, к.3",Moscow,RU,ЗАО «СитиБайк»,55.64755,37.59661,0.0
9ee96eae66d63874a249f2a745860008,"Комсомольский пр-т, д.31",Moscow,RU,ЗАО «СитиБайк»,55.724758,37.579818,0.0
0f29f4a7b7dfb3a571dfcecd2c53086c,"ул. Хамовнический Вал, д.2",Moscow,RU,ЗАО «СитиБайк»,55.716393,37.57563,0.0
1e657ce29932af80d244a020ec143815,"Ленинский пр-т, д.41/2",Moscow,RU,ЗАО «СитиБайк»,55.705096,37.579903,0.0
d54e565706ed8bdab7ec556a8169dd0b,"ул. Делегатская, д.9, стр.1",Moscow,RU,ЗАО «СитиБайк»,55.77574,37.6135,0.0
753cbab010b5f80971023ab2368c7c55,"Проточный пер., д.11",Moscow,RU,ЗАО «СитиБайк»,55.75016,37.57794,0.0
fff262b47bd3d0601b7b8fefe7205da8,"ул. Арбат, д.54/2, стр.1",Moscow,RU,ЗАО «СитиБайк»,55.7471188,37.5832774,0.0
c215a4e6b73abc96ec49ef3c86003c3d,"Ленинский пр-т, д.57",Moscow,RU,ЗАО «СитиБайк»,55.696243,37.560756,0.0
135114eb26f791ef05f6cb3105140e69,"Ленинский пр-т, д.72/2",Moscow,RU,ЗАО «СитиБайк»,55.686484,37.542129,0.0
3804d1fe85f84dcad6a011fd88b935ab,"ул. Косыгина, д.28, стр.2",Moscow,RU,ЗАО «СитиБайк»,55.70842,37.54367,0.0
253d64f1882b8e708839c51657f39030,"1-я Мытищинская ул.,  д.17",Moscow,RU,ЗАО «СитиБайк»,55.800005,37.64500854,0.0
4d9a8670ee35d92e1f33700c29d1cf64,"Ленинградский пр-т, д.32/2",Moscow,RU,ЗАО «СитиБайк»,55.7845806,37.5688179,1.0
00a8b56b68d90cebd6b8a2e1a7313243,"Ленинградское ш., д.112, к.1",Moscow,RU,ЗАО «СитиБайк»,55.863683638,37.46549655,0.0
a6709e5897bb577c8444572916369ab3,"д. Раздоры, ул. Утренняя, д.1",Moscow,RU,ЗАО «СитиБайк»,55.756982,37.316973,0.0
862dd20e72bb20bf4eb4f8a88e147706,"д. Раздоры, ул. Утренняя, д.1 (восточная парковка)",Moscow,RU,ЗАО «СитиБайк»,55.752855,37.317037,0.0
22821501272db07b33cc5dc26ecf02ad,"Рижский пр., д.6, к.1",Moscow,RU,ЗАО «СитиБайк»,55.81389,37.661985,0.0
3c4bbc130d064290387c8945522a0f83,"Павелецкая пл., д.1А, стр.1",Moscow,RU,ЗАО «СитиБайк»,55.72997,37.63684,0.0
6ad55186192d0c01b8a471813e25f4d0,"Бумажный пр., д.19, стр.10",Moscow,RU,ЗАО «СитиБайк»,55.789116,37.586121,0.0
f56a194d7ff60731d8ca42ebdfa94653,"Духовской пер., д.19",Moscow,RU,ЗАО «СитиБайк»,55.70451,37.6125,0.0
e0a7564b9c60d94b68f1045b877b3d53,ст. м. Ботанический сад (выход №1),Moscow,RU,ЗАО «СитиБайк»,55.84605,37.63945,0.0
8245e1551fc7608c1a8753a3687c2283,"пр-т Мира, д.97",Moscow,RU,ЗАО «СитиБайк»,55.80838,37.63662,0.0
da15b091060f6dfec9214b22401b350c,"пр-т Мира, д.97",Moscow,RU,ЗАО «СитиБайк»,55.80983,37.63676,0.0
c837b4bca5eb0c3bb979bcc97da80f9d,"ул. Симоновский Вал, д.12, к.2",Moscow,RU,ЗАО «СитиБайк»,55.725,37.66305,0.0
3c9e13b08687680ce637de40c9d82f1d,"Ленинский пр-т, д.64/2",Moscow,RU,ЗАО «СитиБайк»,55.69251,37.55206,0.0
7b046bd3623658ab93fffcae28c641f1,"ул. Генерала Глаголева, д.14",Moscow,RU,ЗАО «СитиБайк»,55.78234,37.46238,0.0
d53614ca8dc3dd620213700f5f3fb955,"2-я Песчаная ул., д.1/18",Moscow,RU,ЗАО «СитиБайк»,55.79595,37.51757,0.0
659fa171961c663d162ca8143356d617,ст. м. Чертановская (выход №5),Moscow,RU,ЗАО «СитиБайк»,55.64052,37.6049,2.0
cd52ec7a504aec354975fa64531d3c8e,"Шоссе Энтузиастов, д.7А",Moscow,RU,ЗАО «СитиБайк»,55.7487,37.70119,0.0
4a460ae22816d4a6e94f67870e82443e,"ул. 26-ти Бакинских Комиссаров, д.2Б",Moscow,RU,ЗАО «СитиБайк»,55.6558941,37.4954392,0.0
a0a5c68ec5b2a1a81f508642412ef178,"Измайловское ш., д.69Д, стр.2 (ст. м. Партизанская, выход №1)",Moscow,RU,ЗАО «СитиБайк»,55.78861,37.74951,0.0
1d540982063ace7c4b87e4c7d5fa7288,"Измайловский пр-т, вл53Ас1",Moscow,RU,ЗАО «СитиБайк»,55.78817,37.77908,0.0
c1a389a85505be6ea9f4261bba93d1dc,"ул. Мантулинская, д.5, стр.6",Moscow,RU,ЗАО «СитиБайк»,55.7559551,37.5513244,0.0
c0b295b0c392fb2d4914b2a1d2179663,"ул. Ибрагимова, д.32",Moscow,RU,ЗАО «СитиБайк»,55.78838,37.7303,0.0
f3352443e13876deeb430d23c7fa345a,"Новинский б-р, 31",Moscow,RU,ЗАО «СитиБайк»,55.75809,37.58405,0.0
7d5cca9647c033796a1e36398d69646d,"ул. Поречная, д.17/22",Moscow,RU,ЗАО «СитиБайк»,55.6475,37.761804,0.0
723f19465e84cad24f5b3701cc8c5be2,"ул. Народная, д.15/1",Moscow,RU,ЗАО «СитиБайк»,55.73652,37.64942,0.0
eba5508a02d7546d6824e186bad284f0,"ул. Земляной Вал, д.50А, стр.3",Moscow,RU,ЗАО «СитиБайк»,55.75102,37.65559,0.0
87c0bcda7a0576ed4fbb3c617a8a74e6,Новодевичий пр-д (напротив д.2),Moscow,RU,ЗАО «СитиБайк»,55.72831,37.55903,0.0
c18cc2daed388524f91ced40ee310256,"Космодамианская наб., д.46/50",Moscow,RU,ЗАО «СитиБайк»,55.7364956,37.645943,0.0
e9e826d4babe756a201f891b5c456cb2,"Раушская наб., д.14",Moscow,RU,ЗАО «СитиБайк»,55.748202,37.6328433,0.0
c403c154c8a8cd76434beb322fe8c894,"Космодамианская наб., д.22, стр.1",Moscow,RU,ЗАО «СитиБайк»,55.7434283,37.6417277,0.0
692c99077dd831ad56729a9c39d188d2,"ул. Садовая-Кудринская, д.25",Moscow,RU,ЗАО «СитиБайк»,55.7657,37.59006,0.0
f6cf0dbb877e4a8dcea964a37137c2eb,ст. м. Воробьёвы горы (Лужники),Moscow,RU,ЗАО «СитиБайк»,55.71227,37.56075,0.0
fecccc4334d600dfc80a02f10a4f811e,"ул. Русаковская, д.26",Moscow,RU,ЗАО «СитиБайк»,55.78876,37.68087,0.0
869f888a41495a05a9fd61f49f71d0f0,"ул. Сокольнический Вал, д.40",Moscow,RU,ЗАО «СитиБайк»,55.79148,37.67148,0.0
4ce9d9eddee027bb61fd4e48351dca36,"8-я улица Соколиной Горы, д.29/1",Moscow,RU,ЗАО «СитиБайк»,55.767632,37.730724,0.0
5693fce336d02acc393c074145a7b4b6,"ул. Электрозаводская, д.1",Moscow,RU,ЗАО «СитиБайк»,55.783432,37.700134,0.0
bd0cbbad0c01dac41bbefeeb709c7315,"Ул. Семёновский Вал, д.10, к.2",Moscow,RU,ЗАО «СитиБайк»,55.776606,37.715001,0.0
dbc6f9ae5b8ce32f9341b2d486718fd0,"Пл. Журавлёва, д.1",Moscow,RU,ЗАО «СитиБайк»,55.784543,37.703544,0.0
cdbb18c7028a5c470ba675c7e851566f,"ул. Б. Семёновская, д.42",Moscow,RU,ЗАО «СитиБайк»,55.780516,37.71648,0.0
0101e6f858f11aa42fb503475d33b38d,"Ленинградское ш., д.51 (Северный речной вокзал)",Moscow,RU,ЗАО «СитиБайк»,55.85136,37.46727,0.0
43269abacd75cfb497dc16623ad4df70,"ул. Большая Грузинская, д.39",Moscow,RU,ЗАО «СитиБайк»,55.77001,37.58203,0.0
ea530ca3b6fc70f170a3846fd3b64dec,"2-я Тверская-Ямская ул., д.54",Moscow,RU,ЗАО «СитиБайк»,55.77538,37.58955,0.0
3a36b69ac25b3719880a74aaee8e78c6,"Сокольническая пл., д.7",Moscow,RU,ЗАО «СитиБайк»,55.7921,37.67814,0.0
5ef93ef8428f76cdd23ebc792cd7529a,"Ленинградское ш., д.51",Moscow,RU,ЗАО «СитиБайк»,55.85109,37.46861,0.0
534b782a32a461f38876cb90cb1b5836,Staunings Plads DZ,Copenhagen,DK,Gobike A/S,55.67784881591797,12.562789916992188,0.0
de0ecdb82a6dc58be20ea1454b4f43cb,Lille triangel DZ,Copenhagen,DK,Gobike A/S,55.69546890258789,12.580940246582031,0.0
9523af9b1acd51db888ecac563bad398,Strandgade no. 108 DZ,Copenhagen,DK,Gobike A/S,55.67766189575195,12.5974702835083,1.0
a3cd34168d9f7b11b8a396feb9398c73,Ndr. Toldbod ,Copenhagen,DK,Gobike A/S,55.68899917602539,12.598810195922852,11.0
c08a6654e0ffd5a5986c47078c5942bb,Gammel Strand no. 52 DZ,Copenhagen,DK,Gobike A/S,55.67721939086914,12.577619552612305,0.0
f25c36c7d2fdd6d5eb862acc8914f4be,Sundmolen/ Pakhus 48 ,Copenhagen,DK,Gobike A/S,55.70909881591797,12.603099822998047,4.0
7b8e5028f8569231bfa5a4dd68bd7266,Nørreport Station Syd,Copenhagen,DK,Gobike A/S,55.68186950683594,12.569899559020996,14.0
67783af904f7ebf79217bbff358e1cee,"Høje Taastrup, City 2 ",Copenhagen,DK,Gobike A/S,55.64480972290039,12.27787971496582,0.0
27130f979772e3e16dbad1443a6a6787,Høje Taastrup Station ,Copenhagen,DK,Gobike A/S,55.648338317871094,12.270489692687988,2.0
687d6dea1e610a6b2367660cb62202ce,Sluseholmen / Thad Jones Vej,Copenhagen,DK,Gobike A/S,55.646751403808594,12.54854965209961,16.0
bb85a232707d8591693f75bef49092f3,Nørreport Station Nord,Copenhagen,DK,Gobike A/S,55.68482971191406,12.574060440063477,12.0
5809e90a0101332e64b1592837c7a17e,Gammeltorv no. 8 DZ,Copenhagen,DK,Gobike A/S,55.678321838378906,12.57229995727539,0.0
545eb1136c2d5bf5ae55fbd36929952e,Dybbølsbro Station ,Copenhagen,DK,Gobike A/S,55.665069580078125,12.558469772338867,2.0
a5757737724737ec30871f2591244238,Fredericiagade / Bredgade,Copenhagen,DK,Gobike A/S,55.685630798339844,12.591090202331543,7.0
def3f9381f63804e21fa2dbdc8e69b85,AAU-CPH DZ,Copenhagen,DK,Gobike A/S,55.651119232177734,12.540800094604492,0.0
939e7434685208a5fd6713a627ea6dff,Fasanvej Metrostation,Copenhagen,DK,Gobike A/S,55.68151092529297,12.523639678955078,7.0
b8a2cb16f6e0a104fedfc50ef686dca8,Østerport Station ,Copenhagen,DK,Gobike A/S,55.69234085083008,12.586090087890625,9.0
384b71364b8577ffb5cdb7bcd8537127,Gråbrødretorv/Kejsergade no. 1 DZ,Copenhagen,DK,Gobike A/S,55.68013000488281,12.575289726257324,0.0
9b7f50974020ccffd55a415ac4481463,Lergravsparken Station,Copenhagen,DK,Gobike A/S,55.66230010986328,12.616499900817871,1.0
f58f1b796bae0a89e5e9867d051cf01b,Ny Ellebjerg Station,Copenhagen,DK,Gobike A/S,55.6525993347168,12.516900062561035,2.0
921b9cd444ff43d86a14f32b10c7d1d7,Hellerup Station (Ryvangs Alle 79),Copenhagen,DK,Gobike A/S,55.73030090332031,12.567999839782715,1.0
ebdae3741d2dd34a87c3c5e47f033c98,Århusgade / Østerbrohuset ,Copenhagen,DK,Gobike A/S,55.70708084106445,12.588210105895996,2.0
e8ea2a4581772e7bf1295825ecbc36f8,Øresund Metrostation ,Copenhagen,DK,Gobike A/S,55.66141128540039,12.629079818725586,2.0
90740a87eb468cca462a86f88d47ed02,Baggesensgade,Copenhagen,DK,Gobike A/S,55.68727111816406,12.558770179748535,4.0
9cf6e9d89b47af62264006aa649b3709,Nordhavn Station / Nordre Frihavnsgade ,Copenhagen,DK,Gobike A/S,55.70370101928711,12.590800285339355,2.0
2bbee330492dd93f2b329877394e1cbe,Victor Borges Plads,Copenhagen,DK,Gobike A/S,55.701690673828125,12.580499649047852,9.0
d15ae2245254a37a9a32c19b32fbd260,Sifs Plads,Copenhagen,DK,Gobike A/S,55.70320129394531,12.557499885559082,6.0
7f791caedf9553c13355b4eaf73711ab,Nørrebrogade 114,Copenhagen,DK,Gobike A/S,55.69377899169922,12.549799919128418,10.0
783206de1b1b935ddbdf4608fbc49ed5,Flintholm Station / Busterminalen ,Copenhagen,DK,Gobike A/S,55.6859016418457,12.498600006103516,1.0
b68fa05f83746d7f53b5715f67edea7e,Amagerbrogade / Frankrigsgade,Copenhagen,DK,Gobike A/S,55.66059875488281,12.605600357055664,4.0
69e4962865ea1f0c0169ea6d355c4ee9,"Danneskiold-Samsøes Allé (""Holmen"")  ",Copenhagen,DK,Gobike A/S,55.68170166015625,12.605199813842773,5.0
46747baa43be88985e2d167ebf44a9b7,Prismen ,Copenhagen,DK,Gobike A/S,55.66611099243164,12.61089038848877,1.0
18d298b08de0e6261ebebfe29625ffd6,Gunnar Nu Hansens Plads,Copenhagen,DK,Gobike A/S,55.70500183105469,12.576600074768066,14.0
29c534d1f12a8d2f488c9489d4346249,Gammel Kongevej / Planetariet ,Copenhagen,DK,Gobike A/S,55.674171447753906,12.557250022888184,13.0
224ec47f50400d2f80945a4daf2e63eb,Hulgårds Plads,Copenhagen,DK,Gobike A/S,55.70560073852539,12.521900177001953,3.0
b95756df4aae89b15cd7058c943dc27e,H. C. Andersens Boulevard / Tietgensgade,Copenhagen,DK,Gobike A/S,55.673851013183594,12.571290016174316,4.0
4f18f9e69af31a3a790034486bbfb3d7,Dampfærgevej / Regionernes hus ,Copenhagen,DK,Gobike A/S,55.69894027709961,12.59529972076416,6.0
f01f276021d4884b401c9c313fb191f0,Israels Plads (Rømersgade 7) DZ,Copenhagen,DK,Gobike A/S,55.68326187133789,12.568280220031738,0.0
3c12d2ea5cb328d5c9a17bea2a666563,Fortunstræde/ Ved Stranden DZ,Copenhagen,DK,Gobike A/S,55.67774963378906,12.58053970336914,0.0
d28948f73ccbc6c6667cc8f0f5473067,Sitael,Copenhagen,DK,Gobike A/S,41.060691833496094,17.06446075439453,0.0
938468f4c1510e0fba215cfa381795b6,Scandic Front DZ,Copenhagen,DK,Gobike A/S,55.68122863769531,12.592720031738281,0.0
9b16720fecf3d12b03d8e44dbe8aa5f8,Damhus Torv,Copenhagen,DK,Gobike A/S,55.67237091064453,12.473690032958984,1.0
16dd09ff3b5f06809f8712e5b57a831f,Nørreport Station Midt,Copenhagen,DK,Gobike A/S,55.68244934082031,12.570340156555176,6.0
93130d449290c711d9626a17965d348b,Danshøj Station,Copenhagen,DK,Gobike A/S,55.664398193359375,12.494039535522461,0.0
e95b19f24b71561c5414b78569225a5b,Valby Hallen ,Copenhagen,DK,Gobike A/S,55.65010070800781,12.515800476074219,2.0
090f3a66b5768ac4b0e107eb0874c768,Rantzausgade / Den grønne sti,Copenhagen,DK,Gobike A/S,55.688899993896484,12.544699668884277,7.0
7dfab545d7612a38f1194f09f3b1195d,Amager Strand Metrostation,Copenhagen,DK,Gobike A/S,55.65620040893555,12.631600379943848,1.0
5f9d7bc12e1fa8f90ca0e0f67899fd12,Ørestad Metrostation,Copenhagen,DK,Gobike A/S,55.629661560058594,12.579620361328125,5.0
8d6f16d40e8f7752e3a065c3bfc43538,Valby Station / Mellemtoftevej ,Copenhagen,DK,Gobike A/S,55.664161682128906,12.514439582824707,2.0
a2141701bb5e11ba32fe2c0e5e128034,Bispebjerg Station ,Copenhagen,DK,Gobike A/S,55.70668029785156,12.541239738464355,2.0
f0918eddfcdea86afb64871d5bad8035,Borgergade,Copenhagen,DK,Gobike A/S,55.68220138549805,12.583700180053711,5.0
eba75dcb56eb31b523e2b966a69e4dbc,Vesterbros Torv,Copenhagen,DK,Gobike A/S,55.67210006713867,12.5556001663208,11.0
84d47580571b69656cae2f3d730207a6,Sølvtorvet ,Copenhagen,DK,Gobike A/S,55.68960189819336,12.575599670410156,6.0
0769897e8e0daced71ccd0c625efa7ed,Sankt Kjelds Plads ,Copenhagen,DK,Gobike A/S,55.71039962768555,12.56470012664795,3.0
71c0788f79e02ea6e5d0e790145e83a8,Havnegade,Copenhagen,DK,Gobike A/S,55.67720031738281,12.590800285339355,16.0
34964d091a4dfae6da9a5bb7c1a718f3,Søtorvet,Copenhagen,DK,Gobike A/S,55.68598175048828,12.565199851989746,7.0
85f1e6d8809260a35fb583ebcf71825f,Bertel Thorvaldsens Plads DZ,Copenhagen,DK,Gobike A/S,55.67633056640625,12.577369689941406,0.0
d1a9b1941458ebca8bc8ebbf3130ee4e,Kløvermarkens Idrætsanlæg (at the bikeracks) DZ,Copenhagen,DK,Gobike A/S,55.672359466552734,12.608269691467285,0.0
688779d05e1d132006ac29dd3c5a4632,Deloitte DZ ,Copenhagen,DK,Gobike A/S,55.6668586730957,12.583760261535645,0.0
08fa7e64573d06105a8ba8f552b80a54,Musiktorvet (Øresundsvej 4) DZ,Copenhagen,DK,Gobike A/S,55.65824890136719,12.60886001586914,1.0
450fc2a5f698dc9f82fed3ce401f8054,Islands Brygge Metrostation ,Copenhagen,DK,Gobike A/S,55.66360092163086,12.585410118103027,5.0
ce2620fe681285ad12e5f3a2befcd2b9,Oslobåden,Copenhagen,DK,Gobike A/S,55.70133972167969,12.594209671020508,5.0
da111099415aecaaf16cb25d037f5231,Ved Stadsgraven 1 /Amagerfælledvej DZ,Copenhagen,DK,Gobike A/S,55.66815948486328,12.59529972076416,0.0
1678714d06e2ff6992ab0d3ba1271208,DR Byen Metro DZ ,Copenhagen,DK,Gobike A/S,55.65583038330078,12.588859558105469,0.0
d8a49e97c296869c64b3c536db8964c3,Oceankaj / Nordhavn,Copenhagen,DK,Gobike A/S,55.71379852294922,12.619199752807617,1.0
5cb965599eed1c963ffc74d1a4e0d940,Emdrup Torv ,Copenhagen,DK,Gobike A/S,55.722900390625,12.530099868774414,0.0
3956c2c576616e9985a505fb67cc1d35,Bella Center Metrostation ,Copenhagen,DK,Gobike A/S,55.638301849365234,12.583100318908691,2.0
e45d38bd73f0a27624853773078f335a,Trianglen ,Copenhagen,DK,Gobike A/S,55.69990921020508,12.575610160827637,13.0
90e479c54abc316aa186c2c28343ffcc,Regnbuepladsen,Copenhagen,DK,Gobike A/S,55.67572021484375,12.57094955444336,3.0
8e6fa8b3a4e4fffdcf5e74251b86f938,Frederiksberg Runddel,Copenhagen,DK,Gobike A/S,55.67491149902344,12.53219985961914,5.0
bfe1392799f19128f32f5f6f31777b51,Bülowsvej / Thorvaldsensvej ,Copenhagen,DK,Gobike A/S,55.68144989013672,12.544039726257324,6.0
b5c11deba6f91d1e2e7055002ee2f13f,Forum Metrostation,Copenhagen,DK,Gobike A/S,55.68204116821289,12.551899909973145,12.0
fa5af8db726860dce031462a155ae864,Vesterport Station,Copenhagen,DK,Gobike A/S,55.67599868774414,12.562199592590332,10.0
1482002549df84882a003353622620fd,KB Hallen Station ,Copenhagen,DK,Gobike A/S,55.67808151245117,12.492630004882812,2.0
0ed78386b21b01eb05f751fea3f49b1b,Falkoner Allé / Hostrups Have ,Copenhagen,DK,Gobike A/S,55.68461990356445,12.538089752197266,3.0
4d42b17cc8bdc2a1c10da24dc00656dd,Fuglebakken Station ,Copenhagen,DK,Gobike A/S,55.69514846801758,12.527460098266602,2.0
61cf45a3ab3dbad6bc206f689873b409,Vanløse St. (Vanløse Torv 1) DZ,Copenhagen,DK,Gobike A/S,55.687538146972656,12.490839958190918,0.0
1a0734e6961a1894659e9adf4941d696,Københavns Universitet DZ,Copenhagen,DK,Gobike A/S,55.680580139160156,12.572159767150879,0.0
29725c061346e6097275e520d01e95a5,Rødovre Hallen ,Copenhagen,DK,Gobike A/S,55.68088150024414,12.444169998168945,1.0
db3005aa0daf0fde852f1f23bc15928c,Brønshøj Torv ,Copenhagen,DK,Gobike A/S,55.70418930053711,12.49841022491455,2.0
cd7402e5f60c342ed34f08ce997d7b08,Rigshospitalet ,Copenhagen,DK,Gobike A/S,55.69535827636719,12.567930221557617,11.0
b2aec87f3dffb0e9cfc9fcfd668c34dd,Sønder Boulevard ,Copenhagen,DK,Gobike A/S,55.666099548339844,12.551600456237793,7.0
34da84e8bf9ea66c09a81d0e4ecb5cf4,Nørre Campus,Copenhagen,DK,Gobike A/S,55.69987106323242,12.561670303344727,11.0
bdd9a4b41f093be6c67dbbdae0da2454,Bådsmandsstræde ,Copenhagen,DK,Gobike A/S,55.67280960083008,12.597089767456055,3.0
807b24240bff9f81b64af1111896895b,Emdrup Station ,Copenhagen,DK,Gobike A/S,55.719600677490234,12.541299819946289,0.0
e753f14668649ed7cf5e6868c6ae4ede,Langelinie /The little mermaid,Copenhagen,DK,Gobike A/S,55.69340133666992,12.599200248718262,5.0
826489d7e146070c3e8fecd2df3b0c9e,Vigerslev Allé Station ,Copenhagen,DK,Gobike A/S,55.65999984741211,12.498900413513184,0.0
f5562071783b53b19ea4d5f4bae99cab,Sundby Metrostation ,Copenhagen,DK,Gobike A/S,55.64500045776367,12.586999893188477,0.0
30fc03a50ca0e0ffb08eb50ba6372c8c,Københavns Lufthavn Terminal 3 DZ,Copenhagen,DK,Gobike A/S,55.62969970703125,12.648690223693848,0.0
0635cbc1da0edb2ef45afce1e35032dc,Hvidovre St (Rødovre siden) DZ,Copenhagen,DK,Gobike A/S,55.665000915527344,12.474650382995605,0.0
4b9b29376a5f6318892fb263177d9265,Carlsberg St (Tapperitorvet 1) DZ,Copenhagen,DK,Gobike A/S,55.66360855102539,12.53717041015625,0.0
4803573b39c0083f063afdef2f092dcf,SMK DZ,Copenhagen,DK,Gobike A/S,55.68764877319336,12.578450202941895,0.0
39b0428ac52e62c4fa3e9778d3666b4a,"Fælledkanten, Else Alfelts Vej (Ørestad Syd)",Copenhagen,DK,Gobike A/S,55.62009811401367,12.568110466003418,1.0
bafc664039adab20ce60e797ee6dc52f,Mozarts plads (corner of Mozartsvej) DZ,Copenhagen,DK,Gobike A/S,55.64870834350586,12.533679962158203,1.0
f91a917b6573d7e1f6a2c4b711f0a547,Vestbadet,Copenhagen,DK,Gobike A/S,55.668968200683594,12.446940422058105,1.0
df2b555235eefcc7de51a26c36b86084,Islev Torv ,Copenhagen,DK,Gobike A/S,55.7050895690918,12.446499824523926,2.0
e24b860260a2e50df4e50925a2d19ff1,Jyllingevej/ Tårnvej ,Copenhagen,DK,Gobike A/S,55.69192886352539,12.44888973236084,0.0
8fb0f194a76236c9cc4c9bcb41f98992,Tæbyvej (Teknisk Forvaltning) ,Copenhagen,DK,Gobike A/S,55.68571090698242,12.453900337219238,3.0
62bcad6e616f3fc3cdc3c71a4915aae3,Sundbyvester Plads DZ,Copenhagen,DK,Gobike A/S,55.64653015136719,12.613920211791992,0.0
37a98564a354971ff7f3a4d34c0c41f7,Rødovre Centrum / Parkvej ,Copenhagen,DK,Gobike A/S,55.680328369140625,12.456629753112793,0.0
caa247e1909e7f18f27fd6609f5f6aef,Göteborg Plads/ Nordhavn DZ,Copenhagen,DK,Gobike A/S,55.706729888916016,12.597450256347656,1.0
e062d2f1aab7ea4817473ae4ac307842,Mindeankeret (Corner of Nyhavn/Kgs Nytorv) DZ,Copenhagen,DK,Gobike A/S,55.680599212646484,12.587380409240723,0.0
52aee778d03bb617ca52f27a462d9e07,Ryparken Station ,Copenhagen,DK,Gobike A/S,55.71493911743164,12.559720039367676,2.0
9d7988bdb5d9afadb0e799114e6d9853,Bopa Plads DZ,Copenhagen,DK,Gobike A/S,55.70500183105469,12.581029891967773,0.0
60355eaf2110c896bd0b69f4d83a3e94,Waterfront Shoppingcenter DZ,Copenhagen,DK,Gobike A/S,55.725868225097656,12.577980041503906,0.0
d9051a3a3b8bbfe216e87af63d0b8f08,Kongens Nytorv v. Magasin du Nord,Copenhagen,DK,Gobike A/S,55.67884826660156,12.585020065307617,8.0
397caae65857c811e69d8ea986bab21d,Pilestræde ,Copenhagen,DK,Gobike A/S,55.6820182800293,12.577110290527344,6.0
94364ad1b9b2cb9c030f9afae3625f7a,Sankt Thomas Plads ,Copenhagen,DK,Gobike A/S,55.67340087890625,12.547800064086914,13.0
be42f80284d947714a82b72c4f6323c5,Langgade Station / Valby,Copenhagen,DK,Gobike A/S,55.66699981689453,12.504500389099121,6.0
5b0b30b3ae2f7ff842cdb5d8ade1d465,Halmtorvet,Copenhagen,DK,Gobike A/S,55.66986083984375,12.560090065002441,11.0
9f5c337704e65a1935bba1618d618ab8,Frederiksberg Svømmehal ,Copenhagen,DK,Gobike A/S,55.68479919433594,12.531599998474121,1.0
4621197c2b65cb9be2cfd2498a3b0b48,Sønder Boulevard / Enghavevej ,Copenhagen,DK,Gobike A/S,55.66374969482422,12.542340278625488,3.0
fc6c33122936f4b49451310f2064e6cc,Nørrebro Station ,Copenhagen,DK,Gobike A/S,55.70122146606445,12.538069725036621,9.0
8c806750489fe31c4ea61920c484037c,Heerup Museum / Rødovregården,Copenhagen,DK,Gobike A/S,55.68275833129883,12.46619987487793,2.0
53de294cf0da06fbafc75f75a1cf1331,Flintholm Station / Stig Lommers Plads,Copenhagen,DK,Gobike A/S,55.68537902832031,12.499750137329102,2.0
7ffc994fbf87893dc444f4d37469f7e6,Frederiksberg Rådhusplads,Copenhagen,DK,Gobike A/S,55.678321838378906,12.532750129699707,4.0
8d53f5c194600947e208059a4ea7a3e2,Københavns Rådhusplads,Copenhagen,DK,Gobike A/S,55.67551040649414,12.568750381469727,7.0
756ea9885f4b83ba27004d3d0dd37b81,Valby Station / Lyshøjgårdsvej ,Copenhagen,DK,Gobike A/S,55.663490295410156,12.516570091247559,1.0
890362494bcff832d9498001d503a42f,Zoologisk Have,Copenhagen,DK,Gobike A/S,55.67169952392578,12.522480010986328,3.0
c4e879cc89e1288455c162685e9bb2e9,Amagerbro Metrostation Drop-zone,Copenhagen,DK,Gobike A/S,55.66328048706055,12.602849960327148,0.0
54cb6f43ec4e86740ff55bf3f9e24b69,Frederiksberg Centret ,Copenhagen,DK,Gobike A/S,55.68111038208008,12.533570289611816,2.0
fa575bd97b94b685cae58cc18783efc9,Frederiksberg Bredegade / Rådhuset ,Copenhagen,DK,Gobike A/S,55.67824935913086,12.530099868774414,10.0
16f67cb44dc3c0dbc3b39b81de0afda9,Højbro Plads no. 4 DZ,Copenhagen,DK,Gobike A/S,55.67856979370117,12.579730033874512,0.0
d357a547571e3f0f41684d9a3584a2a1,Guldbergsgade/BRUS DZ,Copenhagen,DK,Gobike A/S,55.69221878051758,12.556509971618652,0.0
f97f32e75c378a86aa19f126658d1fdf,Helligåndskirken (31 Amagertorv) DZ,Copenhagen,DK,Gobike A/S,55.678749084472656,12.576600074768066,0.0
fa0249b1f67d64550d07ac298ec9743b,Kalvebod brygge (Kalvebod Brygge 3-5) DZ ,Copenhagen,DK,Gobike A/S,55.669429779052734,12.575079917907715,0.0
f760eb502c7e0b96783542db0ae671bc,CPH street food/Reffen Dz,Copenhagen,DK,Gobike A/S,55.69329833984375,12.607950210571289,0.0
d84cb58a14da1616f218c1252bb1f55d,Nordre Fasanvej / Nitivej ,Copenhagen,DK,Gobike A/S,55.692420959472656,12.531970024108887,3.0
c53749fdf62a625a52d108e8e1991313,Dronningensgade / Christianshavns Torv,Copenhagen,DK,Gobike A/S,55.6722412109375,12.592390060424805,4.0
0b5970e7e0a4f8e8fd82da25efe2dc55,Lindevang Metrostation,Copenhagen,DK,Gobike A/S,55.68381881713867,12.512689590454102,19.0
c8df2ef42e90a41c3136da65782fc0ca,Amagerbrogade / Elbagade,Copenhagen,DK,Gobike A/S,55.6533317565918,12.611599922180176,15.0
bf52b7fabdfe4d95eb8b2959ea802bef,Studiestræde / Bispetorvet,Copenhagen,DK,Gobike A/S,55.67924118041992,12.571700096130371,7.0
6ae3481b13dbc28fe4e7d9de343c72d4,Islands Brygge Kulturhus ,Copenhagen,DK,Gobike A/S,55.66699981689453,12.576899528503418,4.0
3dd49e69232d37ff7dffb06d51ac8167,Svanemøllen Station,Copenhagen,DK,Gobike A/S,55.714900970458984,12.577899932861328,4.0
725ec016ae9ba121ba7e1bba70d615b2,Folketinget / Slotsholmsgade ,Copenhagen,DK,Gobike A/S,55.67530822753906,12.583169937133789,3.0
